b'\x00\x00\x00\x00\x00\x00\x00\x00\x00\x00\x00\x00\x00\x00\x00\x00$\x00GPRMC,,V,,,,,,,,,,N*53\r\n'
b'$GPVTG,,,,,,,,,N*30\r\n'
b'$GPGGA,,,,,,0,00,99.99,,,,,,*48\r\n'
b'$GPGSA,A,1,,,,,,,,,,,,,99.99,99.99,99.99*30\r\n'
b'$GPGSV,3,1,12,01,,,21,02,,,21,03,,,21,04,,,26*7B\r\n'
b'$GPGSV,3,2,12,05,,,21,12,,,21,13,,,21,15,,,22*78\r\n'
b'$GPGSV,3,3,12,16,,,21,22,,,21,26,,,21,31,,,21*7B\r\n'
b'$GPGLL,,,,,,V,N*64\r\n'
b'$GPRMC,,V,,,,,,,,,,N*53\r\n'
b'$GPVTG,,,,,,,,,N*30\r\n'
b'$GPGGA,,,,,,0,00,99.99,,,,,,*48\r\n'
b'$GPGSA,A,1,,,,,,,,,,,,,99.99,99.99,99.99*30\r\n'
b'$GPGSV,3,1,11,02,,,29,03,,,17,04,,,29,05,,,18*74\r\n'
b'$GPGSV,3,2,11,12,,,21,13,,,28,14,,,22,20,,,20*75\r\n'
b'$GPGSV,3,3,11,21,,,19,26,,,18,33,,,28*75\r\n'
b'$GPGLL,,,,,,V,N*64\r\n'
b'$GPRMC,,V,,,,,,,,,,N*53\r\n'
b'$GPVTG,,,,,,,,,N*30\r\n'
b'$GPGGA,,,,,,0,00,99.99,,,,,,*48\r\n'
b'$GPGSA,A,1,,,,,,,,,,,,,99.99,99.99,99.99*30\r\n'
b'$GPGSV,2,1,08,02,,,19,04,,,18,12,,,18,13,,,24*7B\r\n'
b'$GPGSV,2,2,08,14,,,18,16,,,23,21,,,14,26,,,10*78\r\n'
b'$GPGLL,,,,,,V,N*64\r\n'
b'$GPRMC,,V,,,,,,,,,,N*53\r\n'
b'$GPVTG,,,,,,,,,N*30\r\n'
b'$GPGGA,,,,,,0,00,99.99,,,,,,*48\r\n'
b'$GPGSA,A,1,,,,,,,,,,,,,99.99,99.99,99.99*30\r\n'
b'$GPGSV,3,1,09,01,,,18,04,,,26,12,,,15,14,,,14*7D\r\n'
b'$GPGSV,3,2,09,16,,,18,20,,,28,21,,,28,24,,,27*7D\r\n'
b'$GPGSV,3,3,09,25,,,26*73\r\n'
b'$GPGLL,,,,,,V,N*64\r\n'
b'$GPRMC,,V,,,,,,,,,,N*53\r\n'
b'$GPVTG,,,,,,,,,N*30\r\n'
b'$GPGGA,,,,,,0,00,99.99,,,,,,*48\r\n'
b'$GPGSA,A,1,,,,,,,,,,,,,99.99,99.99,99.99*30\r\n'
b'$GPGSV,3,1,10,01,,,19,03,,,23,04,,,23,12,,,09*7E\r\n'
b'$GPGSV,3,2,10,14,,,13,16,,,11,20,,,24,21,,,24*78\r\n'
b'$GPGSV,3,3,10,24,,,24,25,,,23*7E\r\n'
b'$GPGLL,,,,,,V,N*64\r\n'
b'$GPRMC,,V,,,,,,,,,,N*53\r\n'
b'$GPVTG,,,,,,,,,N*30\r\n'
b'$GPGGA,,,,,,0,00,99.99,,,,,,*48\r\n'
b'$GPGSA,A,1,,,,,,,,,,,,,99.99,99.99,99.99*30\r\n'
b'$GPGSV,2,1,08,01,,,20,03,,,22,04,,,22,14,,,16*74\r\n'
b'$GPGSV,2,2,08,20,,,22,21,,,23,24,,,22,25,,,22*70\r\n'
b'$GPGLL,,,,,,V,N*64\r\n'
b'$GPRMC,,V,,,,,,,,,,N*53\r\n'
b'$GPVTG,,,,,,,,,N*30\r\n'
b'$GPGGA,,,,,,0,00,99.99,,,,,,*48\r\n'
b'$GPGSA,A,1,,,,,,,,,,,,,99.99,99.99,99.99*30\r\n'
b'$GPGSV,2,1,08,01,,,17,03,,,20,04,,,21,14,,,16*71\r\n'
b'$GPGSV,2,2,08,20,,,20,21,,,21,24,,,21,25,,,20*71\r\n'
b'$GPGLL,,,,,,V,N*64\r\n'
b'$GPRMC,,V,,,,,,,,,,N*53\r\n'
b'$GPVTG,,,,,,,,,N*30\r\n'
b'$GPGGA,,,,,,0,00,99.99,,,,,,*48\r\n'
b'$GPGSA,A,1,,,,,,,,,,,,,99.99,99.99,99.99*30\r\n'
b'$GPGSV,2,1,08,01,,,14,03,,,16,04,,,17,14,,,16*72\r\n'
b'$GPGSV,2,2,08,20,,,18,21,,,19,24,,,20,25,,,18*7B\r\n'
b'$GPGLL,,,,,,V,N*64\r\n'
b'$GPRMC,,V,,,,,,,,,,N*53\r\n'
b'$GPVTG,,,,,,,,,N*30\r\n'
b'$GPGGA,,,,,,0,00,99.99,,,,,,*48\r\n'
b'$GPGSA,A,1,,,,,,,,,,,,,99.99,99.99,99.99*30\r\n'
b'$GPGSV,1,1,02,14,,,15,24,,,17*7A\r\n'
b'$GPGLL,,,,,,V,N*64\r\n'
b'$GPRMC,,V,,,,,,,,,,N*53\r\n'
b'$GPVTG,,,,,,,,,N*30\r\n'
b'$GPGGA,,,,,,0,00,99.99,,,,,,*48\r\n'
b'$GPGSA,A,1,,,,,,,,,,,,,99.99,99.99,99.99*30\r\n'
b'$GPGSV,1,1,01,14,,,13*7F\r\n'
b'$GPGLL,,,,,,V,N*64\r\n'
b'$GPRMC,,V,,,,,,,,,,N*53\r\n'
b'$GPVTG,,,,,,,,,N*30\r\n'
b'$GPGGA,,,,,,0,00,99.99,,,,,,*48\r\n'
b'$GPGSA,A,1,,,,,,,,,,,,,99.99,99.99,99.99*30\r\n'
b'$GPGSV,1,1,00*79\r\n'
b'$GPGLL,,,,,,V,N*64\r\n'
b'$GPRMC,,V,,,,,,,,,,N*53\r\n'
b'$GPVTG,,,,,,,,,N*30\r\n'
b'$GPGGA,,,,,,0,00,99.99,,,,,,*48\r\n'
b'$GPGSA,A,1,,,,,,,,,,,,,99.99,99.99,99.99*30\r\n'
b'$GPGSV,1,1,01,28,,,25*75\r\n'
b'$GPGLL,,,,,,V,N*64\r\n'
b'$GPRMC,,V,,,,,,,,,,N*53\r\n'
b'$GPVTG,,,,,,,,,N*30\r\n'
b'$GPGGA,,,,,,0,00,99.99,,,,,,*48\r\n'
b'$GPGSA,A,1,,,,,,,,,,,,,99.99,99.99,99.99*30\r\n'
b'$GPGSV,1,1,01,28,,,21*71\r\n'
b'$GPGLL,,,,,,V,N*64\r\n'
b'$GPRMC,,V,,,,,,,,,,N*53\r\n'
b'$GPVTG,,,,,,,,,N*30\r\n'
b'$GPGGA,,,,,,0,00,99.99,,,,,,*48\r\n'
b'$GPGSA,A,1,,,,,,,,,,,,,99.99,99.99,99.99*30\r\n'
b'$GPGSV,1,1,00*79\r\n'
b'$GPGLL,,,,,,V,N*64\r\n'
b'$GPRMC,,V,,,,,,,,,,N*53\r\n'
b'$GPVTG,,,,,,,,,N*30\r\n'
b'$GPGGA,,,,,,0,00,99.99,,,,,,*48\r\n'
b'$GPGSA,A,1,,,,,,,,,,,,,99.99,99.99,99.99*30\r\n'
b'$GPGSV,1,1,00*79\r\n'
b'$GPGLL,,,,,,V,N*64\r\n'
b'$GPRMC,,V,,,,,,,,,,N*53\r\n'
b'$GPVTG,,,,,,,,,N*30\r\n'
b'$GPGGA,,,,,,0,00,99.99,,,,,,*48\r\n'
b'$GPGSA,A,1,,,,,,,,,,,,,99.99,99.99,99.99*30\r\n'
b'$GPGSV,1,1,00*79\r\n'
b'$GPGLL,,,,,,V,N*64\r\n'
b'$GPRMC,,V,,,,,,,,,,N*53\r\n'
b'$GPVTG,,,,,,,,,N*30\r\n'
b'$GPGGA,,,,,,0,00,99.99,,,,,,*48\r\n'
b'$GPGSA,A,1,,,,,,,,,,,,,99.99,99.99,99.99*30\r\n'
b'$GPGSV,1,1,00*79\r\n'
b'$GPGLL,,,,,,V,N*64\r\n'
b'$GPRMC,,V,,,,,,,,,,N*53\r\n'
b'$GPVTG,,,,,,,,,N*30\r\n'
b'$GPGGA,,,,,,0,00,99.99,,,,,,*48\r\n'
b'$GPGSA,A,1,,,,,,,,,,,,,99.99,99.99,99.99*30\r\n'
b'$GPGSV,1,1,00*79\r\n'
b'$GPGLL,,,,,,V,N*64\r\n'
b'$GPRMC,,V,,,,,,,,,,N*53\r\n'
b'$GPVTG,,,,,,,,,N*30\r\n'
b'$GPGGA,,,,,,0,00,99.99,,,,,,*48\r\n'
b'$GPGSA,A,1,,,,,,,,,,,,,99.99,99.99,99.99*30\r\n'
b'$GPGSV,1,1,00*79\r\n'
b'$GPGLL,,,,,,V,N*64\r\n'
b'$GPRMC,,V,,,,,,,,,,N*53\r\n'
b'$GPVTG,,,,,,,,,N*30\r\n'
b'$GPGGA,,,,,,0,00,99.99,,,,,,*48\r\n'
b'$GPGSA,A,1,,,,,,,,,,,,,99.99,99.99,99.99*30\r\n'
b'$GPGSV,1,1,00*79\r\n'
b'$GPGLL,,,,,,V,N*64\r\n'
b'$GPRMC,,V,,,,,,,,,,N*53\r\n'
b'$GPVTG,,,,,,,,,N*30\r\n'
b'$GPGGA,,,,,,0,00,99.99,,,,,,*48\r\n'
b'$GPGSA,A,1,,,,,,,,,,,,,99.99,99.99,99.99*30\r\n'
b'$GPGSV,1,1,00*79\r\n'
b'$GPGLL,,,,,,V,N*64\r\n'
b'$GPRMC,,V,,,,,,,,,,N*53\r\n'
b'$GPVTG,,,,,,,,,N*30\r\n'
b'$GPGGA,,,,,,0,00,99.99,,,,,,*48\r\n'
b'$GPGSA,A,1,,,,,,,,,,,,,99.99,99.99,99.99*30\r\n'
b'$GPGSV,1,1,02,07,,,28,16,,,40*75\r\n'
b'$GPGLL,,,,,,V,N*64\r\n'
b'$GPRMC,,V,,,,,,,,,,N*53\r\n'
b'$GPVTG,,,,,,,,,N*30\r\n'
b'$GPGGA,,,,,,0,00,99.99,,,,,,*48\r\n'
b'$GPGSA,A,1,,,,,,,,,,,,,99.99,99.99,99.99*30\r\n'
b'$GPGSV,1,1,03,16,,,45,29,,,40,31,,,39*7B\r\n'
b'$GPGLL,,,,,,V,N*64\r\n'
b'$GPRMC,,V,,,,,,,,,,N*53\r\n'
b'$GPVTG,,,,,,,,,N*30\r\n'
b'$GPGGA,,,,,,0,00,99.99,,,,,,*48\r\n'
b'$GPGSA,A,1,,,,,,,,,,,,,99.99,99.99,99.99*30\r\n'
b'$GPGSV,1,1,03,16,,,41,29,,,37,31,,,37*71\r\n'
b'$GPGLL,,,,,,V,N*64\r\n'
b'$GPRMC,,V,,,,,,,,,,N*53\r\n'
b'$GPVTG,,,,,,,,,N*30\r\n'
b'$GPGGA,,,,,,0,00,99.99,,,,,,*48\r\n'
b'$GPGSA,A,1,,,,,,,,,,,,,99.99,99.99,99.99*30\r\n'
b'$GPGSV,1,1,03,16,,,42,29,,,32,31,,,41*76\r\n'
b'$GPGLL,,,,,,V,N*64\r\n'
b'$GPRMC,,V,,,,,,,,,,N*53\r\n'
b'$GPVTG,,,,,,,,,N*30\r\n'
b'$GPGGA,,,,,,0,00,99.99,,,,,,*48\r\n'
b'$GPGSA,A,1,,,,,,,,,,,,,99.99,99.99,99.99*30\r\n'
b'$GPGSV,1,1,03,16,,,43,29,,,39,31,,,43*7E\r\n'
b'$GPGLL,,,,,,V,N*64\r\n'
b'$GPRMC,,V,,,,,,,,,,N*53\r\n'
b'$GPVTG,,,,,,,,,N*30\r\n'
b'$GPGGA,,,,,,0,00,99.99,,,,,,*48\r\n'
b'$GPGSA,A,1,,,,,,,,,,,,,99.99,99.99,99.99*30\r\n'
b'$GPGSV,1,1,03,16,,,39,29,,,37,31,,,42*7C\r\n'
b'$GPGLL,,,,,,V,N*64\r\n'
b'$GPRMC,,V,,,,,,,,,,N*53\r\n'
b'$GPVTG,,,,,,,,,N*30\r\n'
b'$GPGGA,,,,,,0,00,99.99,,,,,,*48\r\n'
b'$GPGSA,A,1,,,,,,,,,,,,,99.99,99.99,99.99*30\r\n'
b'$GPGSV,1,1,03,16,,,41,29,,,37,31,,,43*72\r\n'
b'$GPGLL,,,,,,V,N*64\r\n'
b'$GPRMC,114218.46,V,,,,,,,,,,N*70\r\n'
b'$GPVTG,,,,,,,,,N*30\r\n'
b'$GPGGA,114218.46,,,,,0,00,99.99,,,,,,*6B\r\n'
b'$GPGSA,A,1,,,,,,,,,,,,,99.99,99.99,99.99*30\r\n'
b'$GPGSV,2,1,05,16,,,38,26,,,42,29,,,35,31,,,43*79\r\n'
b'$GPGSV,2,2,05,32,,,37*79\r\n'
b'$GPGLL,,,,,114218.46,V,N*47\r\n'
b'$GPRMC,114219.00,V,,,,,,,,,,N*73\r\n'
b'$GPVTG,,,,,,,,,N*30\r\n'
b'$GPGGA,114219.00,,,,,0,00,99.99,,,,,,*68\r\n'
b'$GPGSA,A,1,,,,,,,,,,,,,99.99,99.99,99.99*30\r\n'
b'$GPGSV,2,1,05,16,,,40,26,,,42,29,,,35,31,,,40*75\r\n'
b'$GPGSV,2,2,05,32,,,34*7A\r\n'
b'$GPGLL,,,,,114219.00,V,N*44\r\n'
b'$GPRMC,114220.00,V,,,,,,,,,,N*79\r\n'
b'$GPVTG,,,,,,,,,N*30\r\n'
b'$GPGGA,114220.00,,,,,0,00,99.99,,,,,,*62\r\n'
b'$GPGSA,A,1,,,,,,,,,,,,,99.99,99.99,99.99*30\r\n'
b'$GPGSV,2,1,05,16,,,40,26,,,42,29,,,33,31,,,34*70\r\n'
b'$GPGSV,2,2,05,32,,,42*7B\r\n'
b'$GPGLL,,,,,114220.00,V,N*4E\r\n'
b'$GPRMC,114221.00,V,,,,,,,,,,N*78\r\n'
b'$GPVTG,,,,,,,,,N*30\r\n'
b'$GPGGA,114221.00,,,,,0,00,99.99,,,,,,*63\r\n'
b'$GPGSA,A,1,,,,,,,,,,,,,99.99,99.99,99.99*30\r\n'
b'$GPGSV,2,1,05,16,,,40,26,,,39,29,,,36,31,,,42*78\r\n'
b'$GPGSV,2,2,05,32,,,39*77\r\n'
b'$GPGLL,,,,,114221.00,V,N*4F\r\n'
b'$GPRMC,114222.00,V,,,,,,,,,,N*7B\r\n'
b'$GPVTG,,,,,,,,,N*30\r\n'
b'$GPGGA,114222.00,,,,,0,00,99.99,,,,,,*60\r\n'
b'$GPGSA,A,1,,,,,,,,,,,,,99.99,99.99,99.99*30\r\n'
b'$GPGSV,2,1,05,16,,,40,26,,,42,29,,,34,31,,,42*76\r\n'
b'$GPGSV,2,2,05,32,,,34*7A\r\n'
b'$GPGLL,,,,,114222.00,V,N*4C\r\n'
b'$GPRMC,114223.00,V,,,,,,,241216,,,N*78\r\n'
b'$GPVTG,,,,,,,,,N*30\r\n'
b'$GPGGA,114223.00,,,,,0,00,99.99,,,,,,*61\r\n'
b'$GPGSA,A,1,,,,,,,,,,,,,99.99,99.99,99.99*30\r\n'
b'$GPGSV,2,1,08,03,,,27,14,,,39,16,,,43,22,,,35*7D\r\n'
b'$GPGSV,2,2,08,26,,,39,29,,,39,31,,,41,32,,,31*7A\r\n'
b'$GPGLL,,,,,114223.00,V,N*4D\r\n'
b'$GPRMC,114224.00,V,,,,,,,241216,,,N*7F\r\n'
b'$GPVTG,,,,,,,,,N*30\r\n'
b'$GPGGA,114224.00,,,,,0,00,99.99,,,,,,*66\r\n'
b'$GPGSA,A,1,,,,,,,,,,,,,99.99,99.99,99.99*30\r\n'
b'$GPGSV,2,1,08,03,,,25,14,,,37,16,,,43,22,,,41*72\r\n'
b'$GPGSV,2,2,08,26,,,44,29,,,37,31,,,37,32,,,40*79\r\n'
b'$GPGLL,,,,,114224.00,V,N*4A\r\n'
b'$GPRMC,114225.00,V,,,,,,,241216,,,N*7E\r\n'
b'$GPVTG,,,,,,,,,N*30\r\n'
b'$GPGGA,114225.00,,,,,0,00,99.99,,,,,,*67\r\n'
b'$GPGSA,A,1,,,,,,,,,,,,,99.99,99.99,99.99*30\r\n'
b'$GPGSV,2,1,08,03,,,23,14,,,39,16,,,44,22,,,37*7C\r\n'
b'$GPGSV,2,2,08,26,,,43,29,,,37,31,,,40,32,,,35*7C\r\n'
b'$GPGLL,,,,,114225.00,V,N*4B\r\n'
b'$GPRMC,114226.00,V,,,,,,,241216,,,N*7D\r\n'
b'$GPVTG,,,,,,,,,N*30\r\n'
b'$GPGGA,114226.00,,,,,0,00,99.99,,,,,,*64\r\n'
b'$GPGSA,A,1,,,,,,,,,,,,,99.99,99.99,99.99*30\r\n'
b'$GPGSV,2,1,07,14,,,39,16,,,40,22,,,37,26,,,44*71\r\n'
b'$GPGSV,2,2,07,29,,,39,31,,,38,32,,,35*71\r\n'
b'$GPGLL,,,,,114226.00,V,N*48\r\n'
b'$GPRMC,114227.00,V,,,,,,,241216,,,N*7C\r\n'
b'$GPVTG,,,,,,,,,N*30\r\n'
b'$GPGGA,114227.00,,,,,0,00,99.99,,,,,,*65\r\n'
b'$GPGSA,A,1,,,,,,,,,,,,,99.99,99.99,99.99*30\r\n'
b'$GPGSV,2,1,07,14,,,37,16,,,40,22,,,35,26,,,43*7A\r\n'
b'$GPGSV,2,2,07,29,,,38,31,,,37,32,,,30*7A\r\n'
b'$GPGLL,,,,,114227.00,V,N*49\r\n'
b'$GPRMC,114228.00,V,,,,,,,241216,,,N*73\r\n'
b'$GPVTG,,,,,,,,,N*30\r\n'
b'$GPGGA,114228.00,,,,,0,00,99.99,,,,,,*6A\r\n'
b'$GPGSA,A,1,,,,,,,,,,,,,99.99,99.99,99.99*30\r\n'
b'$GPGSV,2,1,08,02,,,35,14,,,38,16,,,40,22,,,35*7D\r\n'
b'$GPGSV,2,2,08,26,,,43,29,,,39,31,,,43,32,,,30*74\r\n'
b'$GPGLL,,,,,114228.00,V,N*46\r\n'
b'$GPRMC,114229.00,V,,,,,,,241216,,,N*72\r\n'
b'$GPVTG,,,,,,,,,N*30\r\n'
b'$GPGGA,114229.00,,,,,0,00,99.99,,,,,,*6B\r\n'
b'$GPGSA,A,1,,,,,,,,,,,,,99.99,99.99,99.99*30\r\n'
b'$GPGSV,2,1,08,02,,,25,14,,,39,16,,,43,22,,,37*7C\r\n'
b'$GPGSV,2,2,08,26,,,43,29,,,38,31,,,38,32,,,30*79\r\n'
b'$GPGLL,,,,,114229.00,V,N*47\r\n'
b'$GPRMC,114230.00,V,,,,,,,241216,,,N*7A\r\n'
b'$GPVTG,,,,,,,,,N*30\r\n'
b'$GPGGA,114230.00,,,,,0,00,99.99,,,,,,*63\r\n'
b'$GPGSA,A,1,,,,,,,,,,,,,99.99,99.99,99.99*30\r\n'
b'$GPGSV,2,1,08,02,,,23,14,,,36,16,,,44,22,,,35*70\r\n'
b'$GPGSV,2,2,08,26,,,44,29,,,39,31,,,37,32,,,36*76\r\n'
b'$GPGLL,,,,,114230.00,V,N*4F\r\n'
b'$GPRMC,114231.00,V,,,,,,,241216,,,N*7B\r\n'
b'$GPVTG,,,,,,,,,N*30\r\n'
b'$GPGGA,114231.00,,,,,0,00,99.99,,,,,,*62\r\n'
b'$GPGSA,A,1,,,,,,,,,,,,,99.99,99.99,99.99*30\r\n'
b'$GPGSV,2,1,07,14,,,38,16,,,44,22,,,38,26,,,42*7D\r\n'
b'$GPGSV,2,2,07,29,,,37,31,,,39,32,,,36*7D\r\n'
b'$GPGLL,,,,,114231.00,V,N*4E\r\n'
b'$GPRMC,114232.00,V,,,,,,,241216,,,N*78\r\n'
b'$GPVTG,,,,,,,,,N*30\r\n'
b'$GPGGA,114232.00,,,,,0,00,99.99,,,,,,*61\r\n'
b'$GPGSA,A,1,,,,,,,,,,,,,99.99,99.99,99.99*30\r\n'
b'$GPGSV,2,1,07,14,,,38,16,,,42,22,,,35,26,,,42*76\r\n'
b'$GPGSV,2,2,07,29,,,40,31,,,44,32,,,38*79\r\n'
b'$GPGLL,,,,,114232.00,V,N*4D\r\n'
b'$GPRMC,114233.00,V,,,,,,,241216,,,N*79\r\n'
b'$GPVTG,,,,,,,,,N*30\r\n'
b'$GPGGA,114233.00,,,,,0,00,99.99,,,,,,*60\r\n'
b'$GPGSA,A,1,,,,,,,,,,,,,99.99,99.99,99.99*30\r\n'
b'$GPGSV,2,1,07,14,,,40,16,,,42,22,,,39,26,,,44*73\r\n'
b'$GPGSV,2,2,07,29,,,32,31,,,43,32,,,36*75\r\n'
b'$GPGLL,,,,,114233.00,V,N*4C\r\n'
b'$GPRMC,114234.00,V,,,,,,,241216,,,N*7E\r\n'
b'$GPVTG,,,,,,,,,N*30\r\n'
b'$GPGGA,114234.00,,,,,0,00,99.99,,,,,,*67\r\n'
b'$GPGSA,A,1,,,,,,,,,,,,,99.99,99.99,99.99*30\r\n'
b'$GPGSV,2,1,07,14,,,38,16,,,44,22,,,39,26,,,43*7D\r\n'
b'$GPGSV,2,2,07,29,,,37,31,,,38,32,,,33*79\r\n'
b'$GPGLL,,,,,114234.00,V,N*4B\r\n'
b'$GPRMC,114235.00,V,,,,,,,241216,,,N*7F\r\n'
b'$GPVTG,,,,,,,,,N*30\r\n'
b'$GPGGA,114235.00,,,,,0,00,99.99,,,,,,*66\r\n'
b'$GPGSA,A,1,,,,,,,,,,,,,99.99,99.99,99.99*30\r\n'
b'$GPGSV,2,1,07,14,,,39,16,,,44,22,,,36,26,,,43*73\r\n'
b'$GPGSV,2,2,07,29,,,41,31,,,40,32,,,34*70\r\n'
b'$GPGLL,,,,,114235.00,V,N*4A\r\n'
b'$GPRMC,114236.00,V,,,,,,,241216,,,N*7C\r\n'
b'$GPVTG,,,,,,,,,N*30\r\n'
b'$GPGGA,114236.00,,,,,0,00,99.99,,,,,,*65\r\n'
b'$GPGSA,A,1,,,,,,,,,,,,,99.99,99.99,99.99*30\r\n'
b'$GPGSV,2,1,07,14,,,40,16,,,44,22,,,32,26,,,43*79\r\n'
b'$GPGSV,2,2,07,29,,,34,31,,,40,32,,,33*75\r\n'
b'$GPGLL,,,,,114236.00,V,N*49\r\n'
b'$GPRMC,114237.00,V,,,,,,,241216,,,N*7D\r\n'
b'$GPVTG,,,,,,,,,N*30\r\n'
b'$GPGGA,114237.00,,,,,0,00,99.99,,,,,,*64\r\n'
b'$GPGSA,A,1,,,,,,,,,,,,,99.99,99.99,99.99*30\r\n'
b'$GPGSV,2,1,07,14,,,39,16,,,43,22,,,26,26,,,42*74\r\n'
b'$GPGSV,2,2,07,29,,,29,31,,,39,32,,,34*70\r\n'
b'$GPGLL,,,,,114237.00,V,N*48\r\n'
b'$GPRMC,114238.00,V,,,,,,,241216,,,N*72\r\n'
b'$GPVTG,,,,,,,,,N*30\r\n'
b'$GPGGA,114238.00,,,,,0,00,99.99,,,,,,*6B\r\n'
b'$GPGSA,A,1,,,,,,,,,,,,,99.99,99.99,99.99*30\r\n'
b'$GPGSV,2,1,08,14,,,39,16,,,42,22,,,24,26,,,41*7B\r\n'
b'$GPGSV,2,2,08,27,,,33,29,,,38,31,,,41,32,,,30*71\r\n'
b'$GPGLL,,,,,114238.00,V,N*47\r\n'
b'$GPRMC,114239.00,V,,,,,,,241216,,,N*73\r\n'
b'$GPVTG,,,,,,,,,N*30\r\n'
b'$GPGGA,114239.00,,,,,0,00,99.99,,,,,,*6A\r\n'
b'$GPGSA,A,1,,,,,,,,,,,,,99.99,99.99,99.99*30\r\n'
b'$GPGSV,2,1,08,14,,,37,16,,,44,22,,,22,26,,,43*77\r\n'
b'$GPGSV,2,2,08,27,,,35,29,,,43,31,,,45,32,,,26*78\r\n'
b'$GPGLL,,,,,114239.00,V,N*46\r\n'
b'$GPRMC,114240.00,V,,,,,,,241216,,,N*7D\r\n'
b'$GPVTG,,,,,,,,,N*30\r\n'
b'$GPGGA,114240.00,,,,,0,00,99.99,,,,,,*64\r\n'
b'$GPGSA,A,1,,,,,,,,,,,,,99.99,99.99,99.99*30\r\n'
b'$GPGSV,2,1,08,14,,,36,16,,,45,22,,,19,26,,,41*7D\r\n'
b'$GPGSV,2,2,08,27,,,35,29,,,43,31,,,40,32,,,35*7F\r\n'
b'$GPGLL,,,,,114240.00,V,N*48\r\n'
b'$GPRMC,114241.00,V,,,,,,,241216,,,N*7C\r\n'
b'$GPVTG,,,,,,,,,N*30\r\n'
b'$GPGGA,114241.00,,,,,0,00,99.99,,,,,,*65\r\n'
b'$GPGSA,A,1,,,,,,,,,,,,,99.99,99.99,99.99*30\r\n'
b'$GPGSV,2,1,08,14,,,36,16,,,44,22,,,17,26,,,41*72\r\n'
b'$GPGSV,2,2,08,27,,,34,29,,,43,31,,,39,32,,,37*72\r\n'
b'$GPGLL,,,,,114241.00,V,N*49\r\n'
b'$GPRMC,114242.00,V,,,,,,,241216,,,N*7F\r\n'
b'$GPVTG,,,,,,,,,N*30\r\n'
b'$GPGGA,114242.00,,,,,0,00,99.99,,,,,,*66\r\n'
b'$GPGSA,A,1,,,,,,,,,,,,,99.99,99.99,99.99*30\r\n'
b'$GPGSV,2,1,08,14,,,34,16,,,40,22,,,18,26,,,43*79\r\n'
b'$GPGSV,2,2,08,27,,,31,29,,,37,31,,,39,32,,,30*73\r\n'
b'$GPGLL,,,,,114242.00,V,N*4A\r\n'
b'$GPRMC,114243.00,V,,,,,,,241216,,,N*7E\r\n'
b'$GPVTG,,,,,,,,,N*30\r\n'
b'$GPGGA,114243.00,,,,,0,00,99.99,,,,,,*67\r\n'
b'$GPGSA,A,1,,,,,,,,,,,,,99.99,99.99,99.99*30\r\n'
b'$GPGSV,2,1,08,14,,,38,16,,,42,22,,,18,26,,,43*77\r\n'
b'$GPGSV,2,2,08,27,,,31,29,,,35,31,,,39,32,,,30*71\r\n'
b'$GPGLL,,,,,114243.00,V,N*4B\r\n'
b'$GPRMC,114244.00,V,,,,,,,241216,,,N*79\r\n'
b'$GPVTG,,,,,,,,,N*30\r\n'
b'$GPGGA,114244.00,,,,,0,00,99.99,,,,,,*60\r\n'
b'$GPGSA,A,1,,,,,,,,,,,,,99.99,99.99,99.99*30\r\n'
b'$GPGSV,2,1,08,14,,,36,16,,,42,22,,,17,26,,,45*70\r\n'
b'$GPGSV,2,2,08,27,,,39,29,,,27,31,,,41,32,,,31*74\r\n'
b'$GPGLL,,,,,114244.00,V,N*4C\r\n'
b'$GPRMC,114245.00,V,,,,,,,241216,,,N*78\r\n'
b'$GPVTG,,,,,,,,,N*30\r\n'
b'$GPGGA,114245.00,,,,,0,00,99.99,,,,,,*61\r\n'
b'$GPGSA,A,1,,,,,,,,,,,,,99.99,99.99,99.99*30\r\n'
b'$GPGSV,2,1,08,14,,,40,16,,,42,22,,,17,26,,,42*76\r\n'
b'$GPGSV,2,2,08,27,,,34,29,,,32,31,,,41,32,,,31*7D\r\n'
b'$GPGLL,,,,,114245.00,V,N*4D\r\n'
b'$GPRMC,114246.00,V,,,,,,,241216,,,N*7B\r\n'
b'$GPVTG,,,,,,,,,N*30\r\n'
b'$GPGGA,114246.00,,,,,0,00,99.99,,,,,,*62\r\n'
b'$GPGSA,A,1,,,,,,,,,,,,,99.99,99.99,99.99*30\r\n'
b'$GPGSV,2,1,08,14,,,37,16,,,44,22,,,18,26,,,42*7F\r\n'
b'$GPGSV,2,2,08,27,,,34,29,,,33,31,,,36,32,,,34*79\r\n'
b'$GPGLL,,,,,114246.00,V,N*4E\r\n'
b'$GPRMC,114247.00,V,,,,,,,241216,,,N*7A\r\n'
b'$GPVTG,,,,,,,,,N*30\r\n'
b'$GPGGA,114247.00,,,,,0,00,99.99,,,,,,*63\r\n'
b'$GPGSA,A,1,,,,,,,,,,,,,99.99,99.99,99.99*30\r\n'
b'$GPGSV,2,1,08,14,,,30,16,,,35,22,,,19,26,,,35*7F\r\n'
b'$GPGSV,2,2,08,27,,,27,29,,,31,31,,,31,32,,,27*7C\r\n'
b'$GPGLL,,,,,114247.00,V,N*4F\r\n'
b'$GPRMC,114248.00,V,,,,,,,241216,,,N*75\r\n'
b'$GPVTG,,,,,,,,,N*30\r\n'
b'$GPGGA,114248.00,,,,,0,00,99.99,,,,,,*6C\r\n'
b'$GPGSA,A,1,,,,,,,,,,,,,99.99,99.99,99.99*30\r\n'
b'$GPGSV,2,1,08,14,,,33,16,,,39,22,,,19,26,,,37*72\r\n'
b'$GPGSV,2,2,08,27,,,29,29,,,33,31,,,36,32,,,29*79\r\n'
b'$GPGLL,,,,,114248.00,V,N*40\r\n'
b'$GPRMC,114249.00,V,,,,,,,241216,,,N*74\r\n'
b'$GPVTG,,,,,,,,,N*30\r\n'
b'$GPGGA,114249.00,,,,,0,00,99.99,,,,,,*6D\r\n'
b'$GPGSA,A,1,,,,,,,,,,,,,99.99,99.99,99.99*30\r\n'
b'$GPGSV,3,1,09,03,,,35,11,,,22,14,,,35,16,,,39*79\r\n'
b'$GPGSV,3,2,09,26,,,39,27,,,30,29,,,35,31,,,39*7C\r\n'
b'$GPGSV,3,3,09,32,,,31*73\r\n'
b'$GPGLL,,,,,114249.00,V,N*41\r\n'
b'$GPRMC,114250.00,V,,,,,,,241216,,,N*7C\r\n'
b'$GPVTG,,,,,,,,,N*30\r\n'
b'$GPGGA,114250.00,,,,,0,00,99.99,,,,,,*65\r\n'
b'$GPGSA,A,1,,,,,,,,,,,,,99.99,99.99,99.99*30\r\n'
b'$GPGSV,2,1,08,03,,,32,14,,,33,16,,,40,26,,,37*76\r\n'
b'$GPGSV,2,2,08,27,,,30,29,,,31,31,,,35,32,,,31*79\r\n'
b'$GPGLL,,,,,114250.00,V,N*49\r\n'
b'$GPRMC,114251.00,A,2305.77042,N,11321.05599,E,2.446,354.41,241216,,,A*6F\r\n'
b'$GPVTG,354.41,T,,M,2.446,N,4.530,K,A*3C\r\n'
b'$GPGGA,114251.00,2305.77042,N,11321.05599,E,1,04,2.53,-0.7,M,-5.3,M,,*6D\r\n'
b'$GPGSA,A,3,16,31,26,14,,,,,,,,,7.12,2.53,6.66*00\r\n'
b'$GPGSV,3,1,10,03,,,32,14,64,112,34,16,60,248,39,18,,,26*72\r\n'
b'$GPGSV,3,2,10,20,,,27,26,73,334,38,27,,,30,29,,,28*46\r\n'
b'$GPGSV,3,3,10,31,44,034,38,32,,,27*42\r\n'
b'$GPGLL,2305.77042,N,11321.05599,E,114251.00,A,A*69\r\n'
b'$GPRMC,114252.00,A,2305.77091,N,11321.05582,E,2.432,354.07,241216,,,A*69\r\n'
b'$GPVTG,354.07,T,,M,2.432,N,4.504,K,A*3A\r\n'
b'$GPGGA,114252.00,2305.77091,N,11321.05582,E,1,04,2.53,-0.3,M,-5.3,M,,*6E\r\n'
b'$GPGSA,A,3,16,31,26,14,,,,,,,,,7.12,2.53,6.66*00\r\n'
b'$GPGSV,3,1,11,03,,,36,12,,,24,14,64,112,35,16,60,248,39*7E\r\n'
b'$GPGSV,3,2,11,18,,,22,20,,,24,26,73,334,41,27,,,30*42\r\n'
b'$GPGSV,3,3,11,29,,,33,31,44,034,38,32,,,26*49\r\n'
b'$GPGLL,2305.77091,N,11321.05582,E,114252.00,A,A*6E\r\n'
b'$GPRMC,114253.00,A,2305.77168,N,11321.05569,E,2.593,352.81,241216,,,A*68\r\n'
b'$GPVTG,352.81,T,,M,2.593,N,4.802,K,A*33\r\n'
b'$GPGGA,114253.00,2305.77168,N,11321.05569,E,1,04,2.53,-0.1,M,-5.3,M,,*6F\r\n'
b'$GPGSA,A,3,16,31,26,14,,,,,,,,,7.12,2.53,6.66*00\r\n'
b'$GPGSV,3,1,10,03,,,34,14,64,112,34,16,60,248,40,18,,,15*7A\r\n'
b'$GPGSV,3,2,10,20,,,23,26,73,334,40,27,,,30,29,,,29*4C\r\n'
b'$GPGSV,3,3,10,31,44,034,37,32,,,31*4A\r\n'
b'$GPGLL,2305.77168,N,11321.05569,E,114253.00,A,A*6D\r\n'
b'$GPRMC,114254.00,A,2305.77235,N,11321.05553,E,2.244,349.56,241216,,,A*60\r\n'
b'$GPVTG,349.56,T,,M,2.244,N,4.157,K,A*37\r\n'
b'$GPGGA,114254.00,2305.77235,N,11321.05553,E,1,04,2.53,0.1,M,-5.3,M,,*47\r\n'
b'$GPGSA,A,3,16,31,26,14,,,,,,,,,7.13,2.53,6.66*01\r\n'
b'$GPGSV,3,1,09,03,,,34,14,64,112,35,16,60,248,40,20,,,20*7E\r\n'
b'$GPGSV,3,2,09,26,73,334,39,27,,,31,29,,,33,31,44,034,33*76\r\n'
b'$GPGSV,3,3,09,32,,,31*73\r\n'
b'$GPGLL,2305.77235,N,11321.05553,E,114254.00,A,A*68\r\n'
b'$GPRMC,114255.00,A,2305.77296,N,11321.05526,E,2.345,348.24,241216,,,A*6E\r\n'
b'$GPVTG,348.24,T,,M,2.345,N,4.343,K,A*34\r\n'
b'$GPGGA,114255.00,2305.77296,N,11321.05526,E,1,04,2.53,0.3,M,-5.3,M,,*4F\r\n'
b'$GPGSA,A,3,16,31,26,14,,,,,,,,,7.13,2.53,6.66*01\r\n'
b'$GPGSV,3,1,09,03,,,37,12,,,20,14,64,112,35,16,60,248,41*7D\r\n'
b'$GPGSV,3,2,09,26,73,334,41,27,,,30,29,,,36,31,44,034,37*79\r\n'
b'$GPGSV,3,3,09,32,,,32*70\r\n'
b'$GPGLL,2305.77296,N,11321.05526,E,114255.00,A,A*62\r\n'
b'$GPRMC,114256.00,A,2305.77369,N,11321.05513,E,2.358,350.16,241216,,,A*6E\r\n'
b'$GPVTG,350.16,T,,M,2.358,N,4.367,K,A*36\r\n'
b'$GPGGA,114256.00,2305.77369,N,11321.05513,E,1,04,2.53,0.8,M,-5.3,M,,*40\r\n'
b'$GPGSA,A,3,16,31,26,14,,,,,,,,,7.13,2.53,6.66*01\r\n'
b'$GPGSV,3,1,09,03,,,39,12,,,21,14,64,112,35,16,60,248,40*73\r\n'
b'$GPGSV,3,2,09,26,73,334,39,27,,,30,29,,,36,31,44,034,37*76\r\n'
b'$GPGSV,3,3,09,32,,,32*70\r\n'
b'$GPGLL,2305.77369,N,11321.05513,E,114256.00,A,A*66\r\n'
b'$GPRMC,114257.00,A,2305.77441,N,11321.05506,E,2.395,353.02,241216,,,A*61\r\n'
b'$GPVTG,353.02,T,,M,2.395,N,4.436,K,A*32\r\n'
b'$GPGGA,114257.00,2305.77441,N,11321.05506,E,1,04,2.53,0.8,M,-5.3,M,,*48\r\n'
b'$GPGSA,A,3,16,31,26,14,,,,,,,,,7.13,2.53,6.67*00\r\n'
b'$GPGSV,3,1,09,03,,,34,12,,,21,14,64,112,33,16,60,248,40*78\r\n'
b'$GPGSV,3,2,09,26,73,334,41,27,,,30,29,,,38,31,44,034,36*76\r\n'
b'$GPGSV,3,3,09,32,,,32*70\r\n'
b'$GPGLL,2305.77441,N,11321.05506,E,114257.00,A,A*6E\r\n'
b'$GPRMC,114258.00,A,2305.77502,N,11321.05502,E,1.874,355.66,241216,,,A*6F\r\n'
b'$GPVTG,355.66,T,,M,1.874,N,3.471,K,A*35\r\n'
b'$GPGGA,114258.00,2305.77502,N,11321.05502,E,1,04,2.53,1.6,M,-5.3,M,,*4A\r\n'
b'$GPGSA,A,3,16,31,26,14,,,,,,,,,7.13,2.53,6.67*00\r\n'
b'$GPGSV,3,1,11,03,,,34,12,,,22,13,,,26,14,64,112,38*44\r\n'
b'$GPGSV,3,2,11,15,,,28,16,60,248,37,26,73,334,42,27,,,29*71\r\n'
b'$GPGSV,3,3,11,29,,,36,31,44,034,41,32,,,35*40\r\n'
b'$GPGLL,2305.77502,N,11321.05502,E,114258.00,A,A*63\r\n'
b'$GPRMC,114259.00,A,2305.77557,N,11321.05490,E,1.833,353.77,241216,,,A*61\r\n'
b'$GPVTG,353.77,T,,M,1.833,N,3.394,K,A*3C\r\n'
b'$GPGGA,114259.00,2305.77557,N,11321.05490,E,1,04,2.53,2.5,M,-5.3,M,,*41\r\n'
b'$GPGSA,A,3,16,31,26,14,,,,,,,,,7.13,2.53,6.67*00\r\n'
b'$GPGSV,3,1,10,03,,,37,12,,,22,13,,,24,14,64,112,36*4A\r\n'
b'$GPGSV,3,2,10,16,60,248,39,26,73,334,41,27,,,29,29,,,38*73\r\n'
b'$GPGSV,3,3,10,31,44,034,40,32,,,34*4F\r\n'
b'$GPGLL,2305.77557,N,11321.05490,E,114259.00,A,A*68\r\n'
b'$GPRMC,114300.00,A,2305.77592,N,11321.05492,E,1.903,347.12,241216,,,A*63\r\n'
b'$GPVTG,347.12,T,,M,1.903,N,3.524,K,A*35\r\n'
b'$GPGGA,114300.00,2305.77592,N,11321.05492,E,1,04,2.53,2.7,M,-5.3,M,,*45\r\n'
b'$GPGSA,A,3,16,31,26,14,,,,,,,,,7.13,2.53,6.67*00\r\n'
b'$GPGSV,3,1,10,03,,,40,12,,,21,13,,,22,14,64,112,40*4E\r\n'
b'$GPGSV,3,2,10,16,60,248,41,26,73,334,41,27,,,33,29,,,37*78\r\n'
b'$GPGSV,3,3,10,31,44,034,41,32,,,32*48\r\n'
b'$GPGLL,2305.77592,N,11321.05492,E,114300.00,A,A*6E\r\n'
b'$GPRMC,114301.00,A,2305.77636,N,11321.05469,E,1.722,342.87,241216,,,A*6F\r\n'
b'$GPVTG,342.87,T,,M,1.722,N,3.189,K,A*32\r\n'
b'$GPGGA,114301.00,2305.77636,N,11321.05469,E,1,04,2.53,2.6,M,-5.3,M,,*4C\r\n'
b'$GPGSA,A,3,16,31,26,14,,,,,,,,,7.13,2.53,6.67*00\r\n'
b'$GPGSV,3,1,10,03,,,40,12,,,21,13,,,22,14,64,112,37*4E\r\n'
b'$GPGSV,3,2,10,16,60,248,37,26,73,334,39,27,,,32,29,,,32*72\r\n'
b'$GPGSV,3,3,10,31,44,034,36,32,,,28*43\r\n'
b'$GPGLL,2305.77636,N,11321.05469,E,114301.00,A,A*66\r\n'
b'$GPRMC,114302.00,A,2305.77685,N,11321.05445,E,2.028,339.21,241216,,,A*64\r\n'
b'$GPVTG,339.21,T,,M,2.028,N,3.755,K,A*3B\r\n'
b'$GPGGA,114302.00,2305.77685,N,11321.05445,E,1,04,2.53,2.7,M,-5.3,M,,*48\r\n'
b'$GPGSA,A,3,16,31,26,14,,,,,,,,,7.14,2.53,6.67*07\r\n'
b'$GPGSV,3,1,10,03,,,34,12,,,21,13,,,21,14,64,112,34*4D\r\n'
b'$GPGSV,3,2,10,16,60,248,40,26,73,334,41,27,,,28,29,,,34*70\r\n'
b'$GPGSV,3,3,10,31,44,034,39,32,,,33*46\r\n'
b'$GPGLL,2305.77685,N,11321.05445,E,114302.00,A,A*63\r\n'
b'$GPRMC,114303.00,A,2305.77732,N,11321.05423,E,1.917,337.12,241216,,,A*60\r\n'
b'$GPVTG,337.12,T,,M,1.917,N,3.550,K,A*34\r\n'
b'$GPGGA,114303.00,2305.77732,N,11321.05423,E,1,04,2.53,2.5,M,-5.3,M,,*46\r\n'
b'$GPGSA,A,3,16,31,26,14,,,,,,,,,7.14,2.53,6.68*08\r\n'
b'$GPGSV,3,1,09,03,,,29,12,,,21,14,64,112,36,16,60,248,38*7E\r\n'
b'$GPGSV,3,2,09,26,73,334,41,27,,,32,29,,,30,31,44,034,40*7D\r\n'
b'$GPGSV,3,3,09,32,,,32*70\r\n'
b'$GPGLL,2305.77732,N,11321.05423,E,114303.00,A,A*6F\r\n'
b'$GPRMC,114304.00,A,2305.77780,N,11321.05413,E,1.900,342.11,241216,,,A*6A\r\n'
b'$GPVTG,342.11,T,,M,1.900,N,3.519,K,A*3E\r\n'
b'$GPGGA,114304.00,2305.77780,N,11321.05413,E,1,04,2.53,2.3,M,-5.3,M,,*4D\r\n'
b'$GPGSA,A,3,16,31,26,14,,,,,,,,,7.14,2.53,6.68*08\r\n'
b'$GPGSV,3,1,10,03,,,36,12,,,19,14,64,112,38,16,60,248,36*73\r\n'
b'$GPGSV,3,2,10,22,,,39,26,73,334,43,27,,,26,29,,,38*41\r\n'
b'$GPGSV,3,3,10,31,44,034,40,32,,,38*43\r\n'
b'$GPGLL,2305.77780,N,11321.05413,E,114304.00,A,A*62\r\n'
b'$GPRMC,114305.00,A,2305.77828,N,11321.05411,E,1.905,356.45,241216,,,A*65\r\n'
b'$GPVTG,356.45,T,,M,1.905,N,3.528,K,A*3D\r\n'
b'$GPGGA,114305.00,2305.77828,N,11321.05411,E,1,04,2.53,2.0,M,-5.3,M,,*40\r\n'
b'$GPGSA,A,3,16,31,26,14,,,,,,,,,7.14,2.53,6.68*08\r\n'
b'$GPGSV,3,1,11,03,,,37,12,,,17,13,,,21,14,64,112,36*48\r\n'
b'$GPGSV,3,2,11,16,60,248,39,22,,,30,26,73,334,39,27,,,26*71\r\n'
b'$GPGSV,3,3,11,29,,,34,31,44,034,38,32,,,32*4B\r\n'
b'$GPGLL,2305.77828,N,11321.05411,E,114305.00,A,A*6C\r\n'
b'$GPRMC,114306.00,A,2305.77877,N,11321.05415,E,1.673,358.47,241216,,,A*6A\r\n'
b'$GPVTG,358.47,T,,M,1.673,N,3.098,K,A*31\r\n'
b'$GPGGA,114306.00,2305.77877,N,11321.05415,E,1,04,2.53,1.9,M,-5.3,M,,*47\r\n'
b'$GPGSA,A,3,16,31,26,14,,,,,,,,,7.14,2.53,6.68*08\r\n'
b'$GPGSV,3,1,12,03,,,34,12,,,12,13,,,21,14,64,112,34*4F\r\n'
b'$GPGSV,3,2,12,16,60,248,36,19,,,24,22,,,30,26,73,334,34*7F\r\n'
b'$GPGSV,3,3,12,27,,,25,29,,,34,31,44,034,34,32,,,28*4D\r\n'
b'$GPGLL,2305.77877,N,11321.05415,E,114306.00,A,A*61\r\n'
b'$GPRMC,114307.00,A,2305.77924,N,11321.05408,E,1.667,355.40,241216,,,A*6F\r\n'
b'$GPVTG,355.40,T,,M,1.667,N,3.087,K,A*30\r\n'
b'$GPGGA,114307.00,2305.77924,N,11321.05408,E,1,04,2.53,1.8,M,-5.3,M,,*4C\r\n'
b'$GPGSA,A,3,16,31,26,14,,,,,,,,,7.14,2.53,6.68*08\r\n'
b'$GPGSV,3,1,11,03,,,33,12,,,10,13,,,21,14,64,112,31*4C\r\n'
b'$GPGSV,3,2,11,16,60,248,37,22,,,27,26,73,334,35,27,,,25*76\r\n'
b'$GPGSV,3,3,11,29,,,25,31,44,034,34,32,,,32*47\r\n'
b'$GPGLL,2305.77924,N,11321.05408,E,114307.00,A,A*6B\r\n'
b'$GPRMC,114308.00,A,2305.77972,N,11321.05402,E,1.663,356.07,241216,,,A*6D\r\n'
b'$GPVTG,356.07,T,,M,1.663,N,3.081,K,A*32\r\n'
b'$GPGGA,114308.00,2305.77972,N,11321.05402,E,1,04,2.53,1.6,M,-5.3,M,,*44\r\n'
b'$GPGSA,A,3,16,31,26,14,,,,,,,,,7.14,2.53,6.68*08\r\n'
b'$GPGSV,3,1,12,03,,,33,12,,,11,13,,,19,14,64,112,35*41\r\n'
b'$GPGSV,3,2,12,16,60,248,36,20,,,22,22,,,32,26,73,334,36*73\r\n'
b'$GPGSV,3,3,12,27,,,27,29,,,35,31,44,034,33,32,,,28*49\r\n'
b'$GPGLL,2305.77972,N,11321.05402,E,114308.00,A,A*6D\r\n'
b'$GPRMC,114309.00,A,2305.78020,N,11321.05400,E,1.748,356.82,241216,,,A*6A\r\n'
b'$GPVTG,356.82,T,,M,1.748,N,3.238,K,A*37\r\n'
b'$GPGGA,114309.00,2305.78020,N,11321.05400,E,1,04,2.52,1.5,M,-5.3,M,,*44\r\n'
b'$GPGSA,A,3,16,31,26,14,,,,,,,,,7.14,2.52,6.68*09\r\n'
b'$GPGSV,3,1,10,03,,,27,13,,,16,14,64,112,33,16,60,248,36*76\r\n'
b'$GPGSV,3,2,10,22,,,27,26,73,334,36,27,,,26,29,,,26*43\r\n'
b'$GPGSV,3,3,10,31,44,034,32,32,,,26*49\r\n'
b'$GPGLL,2305.78020,N,11321.05400,E,114309.00,A,A*6F\r\n'
b'$GPRMC,114310.00,A,2305.78070,N,11321.05398,E,1.738,355.84,241216,,,A*63\r\n'
b'$GPVTG,355.84,T,,M,1.738,N,3.218,K,A*37\r\n'
b'$GPGGA,114310.00,2305.78070,N,11321.05398,E,1,04,2.52,1.7,M,-5.3,M,,*4D\r\n'
b'$GPGSA,A,3,16,31,26,14,,,,,,,,,7.15,2.52,6.69*09\r\n'
b'$GPGSV,4,1,14,03,,,28,12,,,24,14,64,112,36,16,60,248,37*7E\r\n'
b'$GPGSV,4,2,14,17,,,24,19,,,26,20,,,22,21,,,23*76\r\n'
b'$GPGSV,4,3,14,22,,,32,26,73,334,39,27,,,27,29,,,32*4E\r\n'
b'$GPGSV,4,4,14,31,44,034,36,32,,,26*49\r\n'
b'$GPGLL,2305.78070,N,11321.05398,E,114310.00,A,A*64\r\n'
b'$GPRMC,114311.00,A,2305.78123,N,11321.05391,E,1.942,354.71,241216,,,A*64\r\n'
b'$GPVTG,354.71,T,,M,1.942,N,3.596,K,A*3E\r\n'
b'$GPGGA,114311.00,2305.78123,N,11321.05391,E,1,04,2.52,1.7,M,-5.3,M,,*42\r\n'
b'$GPGSA,A,3,16,31,26,14,,,,,,,,,7.15,2.52,6.69*09\r\n'
b'$GPGSV,4,1,14,03,,,28,12,,,23,14,64,112,35,16,60,248,36*7B\r\n'
b'$GPGSV,4,2,14,17,,,23,19,,,25,20,,,22,21,,,21*70\r\n'
b'$GPGSV,4,3,14,22,,,32,26,73,334,39,27,,,27,29,,,33*4F\r\n'
b'$GPGSV,4,4,14,31,44,034,38,32,,,30*40\r\n'
b'$GPGLL,2305.78123,N,11321.05391,E,114311.00,A,A*6B\r\n'
b'$GPRMC,114312.00,A,2305.78176,N,11321.05371,E,1.802,344.18,241216,,,A*62\r\n'
b'$GPVTG,344.18,T,,M,1.802,N,3.337,K,A*38\r\n'
b'$GPGGA,114312.00,2305.78176,N,11321.05371,E,1,04,2.52,1.6,M,-5.3,M,,*4E\r\n'
b'$GPGSA,A,3,16,31,26,14,,,,,,,,,7.15,2.52,6.69*09\r\n'
b'$GPGSV,4,1,14,03,,,26,12,,,22,14,64,112,35,16,60,248,37*75\r\n'
b'$GPGSV,4,2,14,17,,,22,19,,,24,20,,,22,21,,,22*73\r\n'
b'$GPGSV,4,3,14,22,,,27,26,73,334,36,27,,,26,29,,,33*45\r\n'
b'$GPGSV,4,4,14,31,44,034,38,32,,,26*47\r\n'
b'$GPGLL,2305.78176,N,11321.05371,E,114312.00,A,A*66\r\n'
b'$GPRMC,114313.00,A,2305.78224,N,11321.05359,E,1.689,,241216,,,A*74\r\n'
b'$GPVTG,,T,,M,1.689,N,3.129,K,A*2C\r\n'
b'$GPGGA,114313.00,2305.78224,N,11321.05359,E,1,04,2.52,1.4,M,-5.3,M,,*43\r\n'
b'$GPGSA,A,3,16,31,26,14,,,,,,,,,7.15,2.52,6.69*09\r\n'
b'$GPGSV,4,1,14,03,,,23,12,,,20,14,64,112,32,16,60,248,36*74\r\n'
b'$GPGSV,4,2,14,17,,,22,19,,,22,20,,,22,21,,,21*76\r\n'
b'$GPGSV,4,3,14,22,,,27,26,73,334,36,27,,,25,29,,,33*46\r\n'
b'$GPGSV,4,4,14,31,44,034,40,32,,,27*49\r\n'
b'$GPGLL,2305.78224,N,11321.05359,E,114313.00,A,A*69\r\n'
b'$GPRMC,114314.00,A,2305.78272,N,11321.05351,E,1.644,345.16,241216,,,A*62\r\n'
b'$GPVTG,345.16,T,,M,1.644,N,3.044,K,A*3C\r\n'
b'$GPGGA,114314.00,2305.78272,N,11321.05351,E,1,04,2.52,1.0,M,-5.3,M,,*4B\r\n'
b'$GPGSA,A,3,16,31,26,14,,,,,,,,,7.15,2.52,6.69*09\r\n'
b'$GPGSV,4,1,15,03,,,19,12,,,18,14,64,112,35,16,60,248,36*70\r\n'
b'$GPGSV,4,2,15,17,,,21,19,,,22,20,,,19,21,,,21*7C\r\n'
b'$GPGSV,4,3,15,22,,,32,23,,,23,26,73,334,36,27,,,25*48\r\n'
b'$GPGSV,4,4,15,29,,,29,31,44,034,40,32,,,26*49\r\n'
b'$GPGLL,2305.78272,N,11321.05351,E,114314.00,A,A*65\r\n'
b'$GPRMC,114315.00,A,2305.78319,N,11321.05340,E,1.592,346.28,241216,,,A*69\r\n'
b'$GPVTG,346.28,T,,M,1.592,N,2.948,K,A*3E\r\n'
b'$GPGGA,114315.00,2305.78319,N,11321.05340,E,1,04,2.52,1.0,M,-5.3,M,,*46\r\n'
b'$GPGSA,A,3,16,31,26,14,,,,,,,,,7.15,2.52,6.69*09\r\n'
b'$GPGSV,3,1,11,14,64,112,38,16,60,248,39,17,,,21,19,,,21*7E\r\n'
b'$GPGSV,3,2,11,21,,,22,22,,,38,26,73,334,41,27,,,25*43\r\n'
b'$GPGSV,3,3,11,29,,,33,31,44,034,45,32,,,26*43\r\n'
b'$GPGLL,2305.78319,N,11321.05340,E,114315.00,A,A*68\r\n'
b'$GPRMC,114316.00,A,2305.78375,N,11321.05340,E,1.608,358.07,241216,,,A*62\r\n'
b'$GPVTG,358.07,T,,M,1.608,N,2.978,K,A*3F\r\n'
b'$GPGGA,114316.00,2305.78375,N,11321.05340,E,1,04,2.52,1.4,M,-5.3,M,,*4B\r\n'
b'$GPGSA,A,3,16,31,26,14,,,,,,,,,7.15,2.52,6.69*09\r\n'
b'$GPGSV,4,1,15,03,,,26,12,,,23,14,64,112,37,16,60,248,37*77\r\n'
b'$GPGSV,4,2,15,17,,,20,19,,,20,20,,,24,21,,,20*70\r\n'
b'$GPGSV,4,3,15,22,,,37,23,,,21,26,73,334,41,27,,,27*4D\r\n'
b'$GPGSV,4,4,15,29,,,40,31,44,034,41,32,,,30*40\r\n'
b'$GPGLL,2305.78375,N,11321.05340,E,114316.00,A,A*61\r\n'
b'$GPRMC,114317.00,A,2305.78430,N,11321.05338,E,1.712,357.32,241216,,,A*69\r\n'
b'$GPVTG,357.32,T,,M,1.712,N,3.170,K,A*3D\r\n'
b'$GPGGA,114317.00,2305.78430,N,11321.05338,E,1,04,2.52,1.6,M,-5.3,M,,*41\r\n'
b'$GPGSA,A,3,16,31,26,14,,,,,,,,,7.16,2.52,6.70*02\r\n'
b'$GPGSV,4,1,14,03,,,23,14,64,112,37,16,60,248,36,17,,,17*70\r\n'
b'$GPGSV,4,2,14,19,,,20,20,,,20,21,,,18,22,,,26*7E\r\n'
b'$GPGSV,4,3,14,23,,,21,26,73,334,38,27,,,25,29,,,34*48\r\n'
b'$GPGSV,4,4,14,31,44,034,39,32,,,28*48\r\n'
b'$GPGLL,2305.78430,N,11321.05338,E,114317.00,A,A*69\r\n'
b'$GPRMC,114318.00,A,2305.78490,N,11321.05334,E,1.825,,241216,,,A*75\r\n'
b'$GPVTG,,T,,M,1.825,N,3.379,K,A*23\r\n'
b'$GPGGA,114318.00,2305.78490,N,11321.05334,E,1,04,2.52,2.1,M,-5.3,M,,*4C\r\n'
b'$GPGSA,A,3,16,31,26,14,,,,,,,,,7.16,2.52,6.70*02\r\n'
b'$GPGSV,4,1,14,03,,,21,14,64,112,35,16,60,248,39,17,,,16*7E\r\n'
b'$GPGSV,4,2,14,19,,,17,20,,,18,21,,,17,22,,,26*7E\r\n'
b'$GPGSV,4,3,14,23,,,19,26,73,334,39,27,,,26,29,,,32*47\r\n'
b'$GPGSV,4,4,14,31,44,034,38,32,,,29*48\r\n'
b'$GPGLL,2305.78490,N,11321.05334,E,114318.00,A,A*60\r\n'
b'$GPRMC,114319.00,A,2305.78550,N,11321.05320,E,1.745,352.10,241216,,,A*6E\r\n'
b'$GPVTG,352.10,T,,M,1.745,N,3.231,K,A*3C\r\n'
b'$GPGGA,114319.00,2305.78550,N,11321.05320,E,1,04,2.52,2.3,M,-5.3,M,,*47\r\n'
b'$GPGSA,A,3,16,31,26,14,,,,,,,,,7.16,2.52,6.70*02\r\n'
b'$GPGSV,3,1,10,03,,,18,14,64,112,36,16,60,248,36,21,,,14*7C\r\n'
b'$GPGSV,3,2,10,22,,,38,26,73,334,39,27,,,25,29,,,34*42\r\n'
b'$GPGSV,3,3,10,31,44,034,42,32,,,33*4A\r\n'
b'$GPGLL,2305.78550,N,11321.05320,E,114319.00,A,A*69\r\n'
b'$GPRMC,114320.00,A,2305.78598,N,11321.05316,E,1.530,353.41,241216,,,A*60\r\n'
b'$GPVTG,353.41,T,,M,1.530,N,2.833,K,A*30\r\n'
b'$GPGGA,114320.00,2305.78598,N,11321.05316,E,1,04,2.52,2.8,M,-5.3,M,,*47\r\n'
b'$GPGSA,A,3,16,31,26,14,,,,,,,,,7.16,2.52,6.70*02\r\n'
b'$GPGSV,3,1,12,14,64,112,36,16,60,248,35,17,,,19,19,,,23*76\r\n'
b'$GPGSV,3,2,12,22,,,36,23,,,21,24,,,20,26,73,334,39*46\r\n'
b'$GPGSV,3,3,12,27,,,26,29,,,32,31,44,034,32,32,,,32*45\r\n'
b'$GPGLL,2305.78598,N,11321.05316,E,114320.00,A,A*62\r\n'
b'$GPRMC,114321.00,A,2305.78659,N,11321.05312,E,1.943,,241216,,,A*7D\r\n'
b'$GPVTG,,T,,M,1.943,N,3.598,K,A*2B\r\n'
b'$GPGGA,114321.00,2305.78659,N,11321.05312,E,1,04,2.52,3.5,M,-5.3,M,,*40\r\n'
b'$GPGSA,A,3,16,31,26,14,,,,,,,,,7.16,2.52,6.70*02\r\n'
b'$GPGSV,3,1,12,14,64,112,33,16,60,248,34,17,,,16,19,,,20*7E\r\n'
b'$GPGSV,3,2,12,22,,,33,23,,,21,24,,,17,26,73,334,39*47\r\n'
b'$GPGSV,3,3,12,27,,,28,29,,,38,31,44,034,36,32,,,27*41\r\n'
b'$GPGLL,2305.78659,N,11321.05312,E,114321.00,A,A*69\r\n'
b'$GPRMC,114322.00,A,2305.78708,N,11321.05315,E,1.572,354.82,241216,,,A*64\r\n'
b'$GPVTG,354.82,T,,M,1.572,N,2.912,K,A*3C\r\n'
b'$GPGGA,114322.00,2305.78708,N,11321.05315,E,1,04,2.52,4.0,M,-5.3,M,,*43\r\n'
b'$GPGSA,A,3,16,31,26,14,,,,,,,,,7.16,2.52,6.70*02\r\n'
b'$GPGSV,3,1,12,14,64,112,36,16,60,248,40,17,,,11,19,,,17*7B\r\n'
b'$GPGSV,3,2,12,22,,,32,23,,,20,24,,,15,26,73,334,38*44\r\n'
b'$GPGSV,3,3,12,27,,,28,29,,,38,31,44,034,39,32,,,32*4A\r\n'
b'$GPGLL,2305.78708,N,11321.05315,E,114322.00,A,A*68\r\n'
b'$GPRMC,114323.00,A,2305.78754,N,11321.05313,E,1.544,354.51,241216,,,A*61\r\n'
b'$GPVTG,354.51,T,,M,1.544,N,2.860,K,A*33\r\n'
b'$GPGGA,114323.00,2305.78754,N,11321.05313,E,1,04,2.52,4.2,M,-5.3,M,,*4F\r\n'
b'$GPGSA,A,3,16,31,26,14,,,,,,,,,7.16,2.52,6.70*02\r\n'
b'$GPGSV,3,1,12,14,64,112,35,16,60,248,37,17,,,09,19,,,15*73\r\n'
b'$GPGSV,3,2,12,22,,,32,23,,,20,24,,,14,26,73,334,37*4A\r\n'
b'$GPGSV,3,3,12,27,,,28,29,,,37,31,44,034,36,32,,,26*4F\r\n'
b'$GPGLL,2305.78754,N,11321.05313,E,114323.00,A,A*66\r\n'
b'$GPRMC,114324.00,A,2305.78778,N,11321.05293,E,0.992,,241216,,,A*7F\r\n'
b'$GPVTG,,T,,M,0.992,N,1.837,K,A*2C\r\n'
b'$GPGGA,114324.00,2305.78778,N,11321.05293,E,1,04,2.52,4.3,M,-5.3,M,,*4E\r\n'
b'$GPGSA,A,3,16,31,26,14,,,,,,,,,7.16,2.52,6.71*03\r\n'
b'$GPGSV,3,1,12,14,64,112,32,16,60,248,37,17,,,09,19,,,12*73\r\n'
b'$GPGSV,3,2,12,22,,,39,23,,,18,24,,,15,26,73,334,38*44\r\n'
b'$GPGSV,3,3,12,27,,,32,29,,,26,31,44,034,42,32,,,35*45\r\n'
b'$GPGLL,2305.78778,N,11321.05293,E,114324.00,A,A*66\r\n'
b'$GPRMC,114325.00,A,2305.78804,N,11321.05248,E,1.951,,241216,,,A*72\r\n'
b'$GPVTG,,T,,M,1.951,N,3.613,K,A*28\r\n'
b'$GPGGA,114325.00,2305.78804,N,11321.05248,E,1,04,2.52,4.7,M,-5.3,M,,*49\r\n'
b'$GPGSA,A,3,16,31,26,14,,,,,,,,,7.17,2.52,6.71*02\r\n'
b'$GPGSV,3,1,11,14,64,112,31,16,60,248,37,17,,,11,19,,,10*78\r\n'
b'$GPGSV,3,2,11,22,,,40,24,,,15,26,73,334,38,27,,,33*44\r\n'
b'$GPGSV,3,3,11,29,,,33,31,44,034,30,32,,,32*44\r\n'
b'$GPGLL,2305.78804,N,11321.05248,E,114325.00,A,A*65\r\n'
b'$GPRMC,114326.00,A,2305.78845,N,11321.05216,E,2.083,340.89,241216,,,A*62\r\n'
b'$GPVTG,340.89,T,,M,2.083,N,3.857,K,A*3B\r\n'
b'$GPGGA,114326.00,2305.78845,N,11321.05216,E,1,04,2.52,5.0,M,-5.3,M,,*42\r\n'
b'$GPGSA,A,3,16,31,26,14,,,,,,,,,7.17,2.52,6.71*02\r\n'
b'$GPGSV,3,1,11,14,64,112,33,16,60,248,36,17,,,11,19,,,09*73\r\n'
b'$GPGSV,3,2,11,22,,,35,24,,,13,26,73,334,38,27,,,32*41\r\n'
b'$GPGSV,3,3,11,29,,,27,31,44,034,37,32,,,31*45\r\n'
b'$GPGLL,2305.78845,N,11321.05216,E,114326.00,A,A*68\r\n'
b'$GPRMC,114327.00,A,2305.78899,N,11321.05199,E,2.044,341.83,241216,,,A*66\r\n'
b'$GPVTG,341.83,T,,M,2.044,N,3.786,K,A*38\r\n'
b'$GPGGA,114327.00,2305.78899,N,11321.05199,E,1,04,2.52,5.1,M,-5.3,M,,*47\r\n'
b'$GPGSA,A,3,16,31,26,14,,,,,,,,,7.17,2.52,6.71*02\r\n'
b'$GPGSV,3,1,10,14,64,112,36,16,60,248,39,22,,,37,24,,,11*7D\r\n'
b'$GPGSV,3,2,10,26,73,334,40,27,,,28,29,,,33,30,,,21*4D\r\n'
b'$GPGSV,3,3,10,31,44,034,35,32,,,26*4E\r\n'
b'$GPGLL,2305.78899,N,11321.05199,E,114327.00,A,A*6C\r\n'
b'$GPRMC,114328.00,A,2305.78948,N,11321.05187,E,1.457,343.28,241216,,,A*6D\r\n'
b'$GPVTG,343.28,T,,M,1.457,N,2.698,K,A*31\r\n'
b'$GPGGA,114328.00,2305.78948,N,11321.05187,E,1,04,2.52,5.9,M,-5.3,M,,*42\r\n'
b'$GPGSA,A,3,16,31,26,14,,,,,,,,,7.17,2.52,6.71*02\r\n'
b'$GPGSV,3,1,09,14,64,112,38,16,60,248,38,22,,,42,24,,,09*71\r\n'
b'$GPGSV,3,2,09,26,73,334,42,27,,,32,29,,,33,31,44,034,35*7F\r\n'
b'$GPGSV,3,3,09,32,,,26*75\r\n'
b'$GPGLL,2305.78948,N,11321.05187,E,114328.00,A,A*61\r\n'
b'$GPRMC,114329.00,A,2305.78954,N,11321.05158,E,1.443,,241216,,,A*76\r\n'
b'$GPVTG,,T,,M,1.443,N,2.673,K,A*21\r\n'
b'$GPGGA,114329.00,2305.78954,N,11321.05158,E,1,04,2.52,6.0,M,-5.3,M,,*46\r\n'
b'$GPGSA,A,3,16,31,26,14,,,,,,,,,7.17,2.52,6.71*02\r\n'
b'$GPGSV,3,1,09,14,64,112,32,16,60,248,40,22,,,41,24,,,08*76\r\n'
b'$GPGSV,3,2,09,26,73,334,38,27,,,33,29,,,36,31,44,034,26*74\r\n'
b'$GPGSV,3,3,09,32,,,32*70\r\n'
b'$GPGLL,2305.78954,N,11321.05158,E,114329.00,A,A*6F\r\n'
b'$GPRMC,114330.00,A,2305.78924,N,11321.05123,E,1.548,,241216,,,A*7F\r\n'
b'$GPVTG,,T,,M,1.548,N,2.867,K,A*20\r\n'
b'$GPGGA,114330.00,2305.78924,N,11321.05123,E,1,04,2.52,5.7,M,-5.3,M,,*41\r\n'
b'$GPGSA,A,3,16,31,26,14,,,,,,,,,7.17,2.52,6.71*02\r\n'
b'$GPGSV,3,1,09,14,64,112,34,16,60,248,35,22,,,40,24,,,08*73\r\n'
b'$GPGSV,3,2,09,26,73,334,37,27,,,32,29,,,31,31,44,034,32*78\r\n'
b'$GPGSV,3,3,09,32,,,33*71\r\n'
b'$GPGLL,2305.78924,N,11321.05123,E,114330.00,A,A*6C\r\n'
b'$GPRMC,114331.00,A,2305.78878,N,11321.05088,E,2.080,293.42,241216,,,A*64\r\n'
b'$GPVTG,293.42,T,,M,2.080,N,3.853,K,A*34\r\n'
b'$GPGGA,114331.00,2305.78878,N,11321.05088,E,1,04,2.52,5.7,M,-5.3,M,,*48\r\n'
b'$GPGSA,A,3,16,31,26,14,,,,,,,,,7.17,2.52,6.72*01\r\n'
b'$GPGSV,2,1,08,14,64,112,30,16,60,248,35,22,,,29,26,73,334,37*46\r\n'
b'$GPGSV,2,2,08,27,,,31,29,,,30,31,44,034,26,32,,,24*48\r\n'
b'$GPGLL,2305.78878,N,11321.05088,E,114331.00,A,A*65\r\n'
b'$GPRMC,114332.00,A,2305.78812,N,11321.05082,E,1.836,236.79,241216,,,A*60\r\n'
b'$GPVTG,236.79,T,,M,1.836,N,3.400,K,A*3F\r\n'
b'$GPGGA,114332.00,2305.78812,N,11321.05082,E,1,04,2.52,5.4,M,-5.3,M,,*4E\r\n'
b'$GPGSA,A,3,16,31,26,14,,,,,,,,,7.18,2.52,6.72*0E\r\n'
b'$GPGSV,2,1,08,14,64,112,39,16,60,248,35,22,,,38,26,73,334,39*41\r\n'
b'$GPGSV,2,2,08,27,,,27,29,,,31,31,44,034,26,32,,,30*4B\r\n'
b'$GPGLL,2305.78812,N,11321.05082,E,114332.00,A,A*60\r\n'
b'$GPRMC,114333.00,A,2305.78766,N,11321.05036,E,2.510,213.56,241216,,,A*62\r\n'
b'$GPVTG,213.56,T,,M,2.510,N,4.648,K,A*36\r\n'
b'$GPGGA,114333.00,2305.78766,N,11321.05036,E,1,04,2.52,5.1,M,-5.3,M,,*49\r\n'
b'$GPGSA,A,3,16,31,26,14,,,,,,,,,7.18,2.52,6.72*0E\r\n'
b'$GPGSV,3,1,10,14,64,112,39,16,60,248,38,22,,,39,26,73,334,39*45\r\n'
b'$GPGSV,3,2,10,27,,,35,28,,,20,29,,,35,30,,,22*7C\r\n'
b'$GPGSV,3,3,10,31,44,034,32,32,,,37*49\r\n'
b'$GPGLL,2305.78766,N,11321.05036,E,114333.00,A,A*62\r\n'
b'$GPRMC,114334.00,A,2305.78708,N,11321.05011,E,2.377,203.40,241216,,,A*69\r\n'
b'$GPVTG,203.40,T,,M,2.377,N,4.402,K,A*3B\r\n'
b'$GPGGA,114334.00,2305.78708,N,11321.05011,E,1,04,2.52,4.8,M,-5.3,M,,*4B\r\n'
b'$GPGSA,A,3,16,31,26,14,,,,,,,,,7.18,2.52,6.72*0E\r\n'
b'$GPGSV,3,1,10,14,64,112,38,16,60,248,38,22,,,40,26,73,334,38*4B\r\n'
b'$GPGSV,3,2,10,27,,,35,28,,,21,29,,,34,30,,,21*7F\r\n'
b'$GPGSV,3,3,10,31,44,034,35,32,,,35*4C\r\n'
b'$GPGLL,2305.78708,N,11321.05011,E,114334.00,A,A*68\r\n'
b'$GPRMC,114335.00,A,2305.78655,N,11321.04987,E,2.332,191.70,241216,,,A*6C\r\n'
b'$GPVTG,191.70,T,,M,2.332,N,4.319,K,A*3C\r\n'
b'$GPGGA,114335.00,2305.78655,N,11321.04987,E,1,04,2.52,4.3,M,-5.3,M,,*4F\r\n'
b'$GPGSA,A,3,16,31,26,14,,,,,,,,,7.18,2.52,6.72*0E\r\n'
b'$GPGSV,3,1,11,14,64,112,39,16,60,248,38,22,,,40,24,,,21*71\r\n'
b'$GPGSV,3,2,11,26,73,334,39,27,,,38,28,,,21,29,,,38*41\r\n'
b'$GPGSV,3,3,11,30,,,21,31,44,034,37,32,,,33*49\r\n'
b'$GPGLL,2305.78655,N,11321.04987,E,114335.00,A,A*67\r\n'
b'$GPRMC,114336.00,A,2305.78588,N,11321.04988,E,2.066,187.30,241216,,,A*62\r\n'
b'$GPVTG,187.30,T,,M,2.066,N,3.825,K,A*3E\r\n'
b'$GPGGA,114336.00,2305.78588,N,11321.04988,E,1,04,2.52,5.0,M,-5.3,M,,*42\r\n'
b'$GPGSA,A,3,16,31,26,14,,,,,,,,,7.18,2.52,6.72*0E\r\n'
b'$GPGSV,3,1,11,14,64,112,34,16,60,248,36,22,,,38,24,,,20*7C\r\n'
b'$GPGSV,3,2,11,26,73,334,36,27,,,36,28,,,22,29,,,37*4C\r\n'
b'$GPGSV,3,3,11,30,,,21,31,44,034,39,32,,,38*4C\r\n'
b'$GPGLL,2305.78588,N,11321.04988,E,114336.00,A,A*68\r\n'
b'$GPRMC,114337.00,A,2305.78529,N,11321.04989,E,2.057,178.97,241216,,,A*66\r\n'
b'$GPVTG,178.97,T,,M,2.057,N,3.809,K,A*3F\r\n'
b'$GPGGA,114337.00,2305.78529,N,11321.04989,E,1,04,2.52,5.2,M,-5.3,M,,*4B\r\n'
b'$GPGSA,A,3,16,31,26,14,,,,,,,,,7.18,2.52,6.73*0F\r\n'
b'$GPGSV,3,1,11,14,64,112,37,16,60,248,37,22,,,35,24,,,18*78\r\n'
b'$GPGSV,3,2,11,26,73,334,38,27,,,37,28,,,21,29,,,36*41\r\n'
b'$GPGSV,3,3,11,30,,,21,31,44,034,36,32,,,37*4C\r\n'
b'$GPGLL,2305.78529,N,11321.04989,E,114337.00,A,A*63\r\n'
b'$GPRMC,114338.00,A,2305.78465,N,11321.04988,E,2.308,179.18,241216,,,A*6E\r\n'
b'$GPVTG,179.18,T,,M,2.308,N,4.274,K,A*37\r\n'
b'$GPGGA,114338.00,2305.78465,N,11321.04988,E,1,04,2.52,5.0,M,-5.3,M,,*4E\r\n'
b'$GPGSA,A,3,16,31,26,14,,,,,,,,,7.18,2.52,6.73*0F\r\n'
b'$GPGSV,3,1,10,14,64,112,36,16,60,248,32,22,,,33,26,73,334,38*4B\r\n'
b'$GPGSV,3,2,10,27,,,35,28,,,21,29,,,36,30,,,20*7C\r\n'
b'$GPGSV,3,3,10,31,44,034,36,32,,,35*4F\r\n'
b'$GPGLL,2305.78465,N,11321.04988,E,114338.00,A,A*64\r\n'
b'$GPRMC,114339.00,A,2305.78407,N,11321.04988,E,2.462,176.77,241216,,,A*66\r\n'
b'$GPVTG,176.77,T,,M,2.462,N,4.559,K,A*32\r\n'
b'$GPGGA,114339.00,2305.78407,N,11321.04988,E,1,04,2.52,4.7,M,-5.3,M,,*4D\r\n'
b'$GPGSA,A,3,16,31,26,14,,,,,,,,,7.19,2.52,6.73*0E\r\n'
b'$GPGSV,3,1,10,14,64,112,38,16,60,248,39,22,,,36,26,73,334,38*4B\r\n'
b'$GPGSV,3,2,10,27,,,38,28,,,22,29,,,37,30,,,18*78\r\n'
b'$GPGSV,3,3,10,31,44,034,37,32,,,42*4E\r\n'
b'$GPGLL,2305.78407,N,11321.04988,E,114339.00,A,A*61\r\n'
b'$GPRMC,114340.00,A,2305.78338,N,11321.04990,E,2.424,174.51,241216,,,A*6E\r\n'
b'$GPVTG,174.51,T,,M,2.424,N,4.488,K,A*3B\r\n'
b'$GPGGA,114340.00,2305.78338,N,11321.04990,E,1,04,2.52,4.3,M,-5.3,M,,*45\r\n'
b'$GPGSA,A,3,16,31,26,14,,,,,,,,,7.19,2.52,6.73*0E\r\n'
b'$GPGSV,3,1,10,14,64,112,38,16,60,248,41,22,,,33,26,73,334,39*40\r\n'
b'$GPGSV,3,2,10,27,,,34,28,,,21,29,,,39,30,,,13*72\r\n'
b'$GPGSV,3,3,10,31,44,034,37,32,,,38*43\r\n'
b'$GPGLL,2305.78338,N,11321.04990,E,114340.00,A,A*6D\r\n'
b'$GPRMC,114341.00,A,2305.78271,N,11321.04991,E,2.516,174.57,241216,,,A*64\r\n'
b'$GPVTG,174.57,T,,M,2.516,N,4.660,K,A*39\r\n'
b'$GPGGA,114341.00,2305.78271,N,11321.04991,E,1,04,2.52,3.9,M,-5.3,M,,*44\r\n'
b'$GPGSA,A,3,16,31,26,14,,,,,,,,,7.19,2.52,6.73*0E\r\n'
b'$GPGSV,3,1,10,14,64,112,38,16,60,248,41,22,,,32,26,73,334,37*4F\r\n'
b'$GPGSV,3,2,10,27,,,37,28,,,19,29,,,38,30,,,13*7B\r\n'
b'$GPGSV,3,3,10,31,44,034,35,32,,,41*4F\r\n'
b'$GPGLL,2305.78271,N,11321.04991,E,114341.00,A,A*61\r\n'
b'$GPRMC,114342.00,A,2305.78200,N,11321.05001,E,2.620,172.75,241216,,,A*60\r\n'
b'$GPVTG,172.75,T,,M,2.620,N,4.852,K,A*36\r\n'
b'$GPGGA,114342.00,2305.78200,N,11321.05001,E,1,04,2.52,3.6,M,-5.3,M,,*4F\r\n'
b'$GPGSA,A,3,16,31,26,14,,,,,,,,,7.19,2.52,6.73*0E\r\n'
b'$GPGSV,3,1,10,14,64,112,35,16,60,248,39,22,,,38,26,73,334,39*49\r\n'
b'$GPGSV,3,2,10,27,,,37,28,,,17,29,,,37,30,,,13*7A\r\n'
b'$GPGSV,3,3,10,31,44,034,37,32,,,43*4F\r\n'
b'$GPGLL,2305.78200,N,11321.05001,E,114342.00,A,A*65\r\n'
b'$GPRMC,114343.00,A,2305.78128,N,11321.05007,E,2.717,174.59,241216,,,A*63\r\n'
b'$GPVTG,174.59,T,,M,2.717,N,5.031,K,A*37\r\n'
b'$GPGGA,114343.00,2305.78128,N,11321.05007,E,1,04,2.52,3.1,M,-5.3,M,,*46\r\n'
b'$GPGSA,A,3,16,31,26,14,,,,,,,,,7.19,2.52,6.73*0E\r\n'
b'$GPGSV,3,1,09,14,64,112,37,16,60,248,41,22,,,35,26,73,334,39*41\r\n'
b'$GPGSV,3,2,09,27,,,39,28,,,13,29,,,36,31,44,034,35*4B\r\n'
b'$GPGSV,3,3,09,32,,,41*74\r\n'
b'$GPGLL,2305.78128,N,11321.05007,E,114343.00,A,A*6B\r\n'
b'$GPRMC,114344.00,A,2305.78063,N,11321.05015,E,2.335,173.35,241216,,,A*60\r\n'
b'$GPVTG,173.35,T,,M,2.335,N,4.324,K,A*38\r\n'
b'$GPGGA,114344.00,2305.78063,N,11321.05015,E,1,04,2.52,1.8,M,-5.3,M,,*47\r\n'
b'$GPGSA,A,3,16,31,26,14,,,,,,,,,7.19,2.52,6.74*09\r\n'
b'$GPGSV,3,1,09,14,64,112,35,16,60,248,41,22,,,36,26,73,334,40*4E\r\n'
b'$GPGSV,3,2,09,27,,,36,29,,,36,30,,,22,31,44,034,41*4C\r\n'
b'$GPGSV,3,3,09,32,,,39*7B\r\n'
b'$GPGLL,2305.78063,N,11321.05015,E,114344.00,A,A*61\r\n'
b'$GPRMC,114345.00,A,2305.78022,N,11321.05029,E,1.646,171.00,241216,,,A*6D\r\n'
b'$GPVTG,171.00,T,,M,1.646,N,3.049,K,A*31\r\n'
b'$GPGGA,114345.00,2305.78022,N,11321.05029,E,1,04,2.52,1.3,M,-5.3,M,,*47\r\n'
b'$GPGSA,A,3,16,31,26,14,,,,,,,,,7.19,2.52,6.74*09\r\n'
b'$GPGSV,3,1,10,03,,,28,14,64,112,34,16,60,248,36,22,,,37*7F\r\n'
b'$GPGSV,3,2,10,26,73,334,39,27,,,35,29,,,36,30,,,21*4A\r\n'
b'$GPGSV,3,3,10,31,44,034,40,32,,,36*4D\r\n'
b'$GPGLL,2305.78022,N,11321.05029,E,114345.00,A,A*6A\r\n'
b'$GPRMC,114346.00,A,2305.77983,N,11321.05029,E,1.396,,241216,,,A*72\r\n'
b'$GPVTG,,T,,M,1.396,N,2.586,K,A*27\r\n'
b'$GPGGA,114346.00,2305.77983,N,11321.05029,E,1,04,2.52,1.1,M,-5.3,M,,*4B\r\n'
b'$GPGSA,A,3,16,31,26,14,,,,,,,,,7.19,2.52,6.74*09\r\n'
b'$GPGSV,3,1,11,03,,,33,14,64,112,33,16,60,248,38,22,,,35*7F\r\n'
b'$GPGSV,3,2,11,26,73,334,38,27,,,37,28,,,20,29,,,36*40\r\n'
b'$GPGSV,3,3,11,30,,,20,31,44,034,37,32,,,36*4D\r\n'
b'$GPGLL,2305.77983,N,11321.05029,E,114346.00,A,A*64\r\n'
b'$GPRMC,114347.00,A,2305.77945,N,11321.05025,E,1.479,174.48,241216,,,A*63\r\n'
b'$GPVTG,174.48,T,,M,1.479,N,2.740,K,A*39\r\n'
b'$GPGGA,114347.00,2305.77945,N,11321.05025,E,1,04,2.52,0.7,M,-5.3,M,,*4B\r\n'
b'$GPGSA,A,3,16,31,26,14,,,,,,,,,7.20,2.52,6.74*03\r\n'
b'$GPGSV,3,1,11,03,,,33,14,64,112,33,16,60,248,36,22,,,35*71\r\n'
b'$GPGSV,3,2,11,26,73,334,38,27,,,37,28,,,18,29,,,37*4A\r\n'
b'$GPGSV,3,3,11,30,,,20,31,44,034,39,32,,,39*4C\r\n'
b'$GPGLL,2305.77945,N,11321.05025,E,114347.00,A,A*63\r\n'
b'$GPRMC,114348.00,A,2305.77895,N,11321.05033,E,1.871,174.64,241216,,,A*6D\r\n'
b'$GPVTG,174.64,T,,M,1.871,N,3.466,K,A*35\r\n'
b'$GPGGA,114348.00,2305.77895,N,11321.05033,E,1,04,2.52,0.7,M,-5.3,M,,*4F\r\n'
b'$GPGSA,A,3,16,31,26,14,,,,,,,,,7.20,2.52,6.74*03\r\n'
b'$GPGSV,3,1,11,03,,,35,14,64,112,34,16,60,248,36,22,,,35*70\r\n'
b'$GPGSV,3,2,11,26,73,334,38,27,,,37,28,,,15,29,,,35*45\r\n'
b'$GPGSV,3,3,11,30,,,20,31,44,034,38,32,,,36*42\r\n'
b'$GPGLL,2305.77895,N,11321.05033,E,114348.00,A,A*67\r\n'
b'$GPRMC,114349.00,A,2305.77843,N,11321.05042,E,1.876,169.09,241216,,,A*61\r\n'
b'$GPVTG,169.09,T,,M,1.876,N,3.474,K,A*36\r\n'
b'$GPGGA,114349.00,2305.77843,N,11321.05042,E,1,04,2.52,0.3,M,-5.3,M,,*47\r\n'
b'$GPGSA,A,3,16,31,26,14,,,,,,,,,7.20,2.52,6.74*03\r\n'
b'$GPGSV,3,1,11,03,,,33,14,64,112,35,16,60,248,38,22,,,37*7B\r\n'
b'$GPGSV,3,2,11,26,73,334,40,27,,,39,28,,,14,29,,,35*45\r\n'
b'$GPGSV,3,3,11,30,,,19,31,44,034,40,32,,,38*49\r\n'
b'$GPGLL,2305.77843,N,11321.05042,E,114349.00,A,A*6B\r\n'
b'$GPRMC,114350.00,A,2305.77791,N,11321.05051,E,1.789,169.38,241216,,,A*66\r\n'
b'$GPVTG,169.38,T,,M,1.789,N,3.313,K,A*3D\r\n'
b'$GPGGA,114350.00,2305.77791,N,11321.05051,E,1,04,2.52,0.3,M,-5.3,M,,*4D\r\n'
b'$GPGSA,A,3,16,31,26,14,,,,,,,,,7.20,2.52,6.74*03\r\n'
b'$GPGSV,3,1,11,03,,,34,14,64,112,33,16,60,248,37,22,,,38*7A\r\n'
b'$GPGSV,3,2,11,26,73,334,35,27,,,35,28,,,14,29,,,32*4C\r\n'
b'$GPGSV,3,3,11,30,,,16,31,44,034,38,32,,,33*42\r\n'
b'$GPGLL,2305.77791,N,11321.05051,E,114350.00,A,A*61\r\n'
b'$GPRMC,114351.00,A,2305.77740,N,11321.05062,E,1.919,165.77,241216,,,A*6B\r\n'
b'$GPVTG,165.77,T,,M,1.919,N,3.554,K,A*38\r\n'
b'$GPGGA,114351.00,2305.77740,N,11321.05062,E,1,04,2.52,0.4,M,-5.3,M,,*47\r\n'
b'$GPGSA,A,3,16,31,26,14,,,,,,,,,7.20,2.52,6.75*02\r\n'
b'$GPGSV,3,1,11,03,,,32,14,64,112,34,16,60,248,39,22,,,35*78\r\n'
b'$GPGSV,3,2,11,26,73,334,39,27,,,36,28,,,14,29,,,32*43\r\n'
b'$GPGSV,3,3,11,30,,,12,31,44,034,37,32,,,40*4D\r\n'
b'$GPGLL,2305.77740,N,11321.05062,E,114351.00,A,A*6C\r\n'
b'$GPRMC,114352.00,A,2305.77685,N,11321.05072,E,1.802,174.49,241216,,,A*67\r\n'
b'$GPVTG,174.49,T,,M,1.802,N,3.337,K,A*3D\r\n'
b'$GPGGA,114352.00,2305.77685,N,11321.05072,E,1,05,2.19,0.5,M,-5.3,M,,*42\r\n'
b'$GPGSA,A,3,16,31,26,14,22,,,,,,,,4.08,2.19,3.44*03\r\n'
b'$GPGSV,3,1,11,03,,,39,14,64,112,32,16,60,248,37,22,32,267,37*4B\r\n'
b'$GPGSV,3,2,11,26,73,334,38,27,,,37,28,,,14,29,,,39*48\r\n'
b'$GPGSV,3,3,11,30,,,09,31,44,034,39,32,,,41*48\r\n'
b'$GPGLL,2305.77685,N,11321.05072,E,114352.00,A,A*66\r\n'
b'$GPRMC,114353.00,A,2305.77624,N,11321.05082,E,2.242,173.64,241216,,,A*67\r\n'
b'$GPVTG,173.64,T,,M,2.242,N,4.153,K,A*3F\r\n'
b'$GPGGA,114353.00,2305.77624,N,11321.05082,E,1,05,2.19,0.7,M,-5.3,M,,*45\r\n'
b'$GPGSA,A,3,16,31,26,14,22,,,,,,,,4.08,2.19,3.44*03\r\n'
b'$GPGSV,3,1,11,03,,,31,14,64,112,35,16,60,248,34,22,32,267,34*44\r\n'
b'$GPGSV,3,2,11,26,73,334,36,27,,,38,28,,,11,29,,,37*42\r\n'
b'$GPGSV,3,3,11,30,,,08,31,44,034,37,32,,,42*44\r\n'
b'$GPGLL,2305.77624,N,11321.05082,E,114353.00,A,A*63\r\n'
b'$GPRMC,114354.00,A,2305.77561,N,11321.05095,E,2.415,171.73,241216,,,A*64\r\n'
b'$GPVTG,171.73,T,,M,2.415,N,4.472,K,A*39\r\n'
b'$GPGGA,114354.00,2305.77561,N,11321.05095,E,1,05,2.19,0.7,M,-5.3,M,,*46\r\n'
b'$GPGSA,A,3,16,31,26,14,22,,,,,,,,4.08,2.19,3.44*03\r\n'
b'$GPGSV,3,1,10,03,,,26,14,64,112,37,16,60,248,35,22,32,267,34*40\r\n'
b'$GPGSV,3,2,10,26,73,334,36,27,,,35,29,,,36,30,,,08*4E\r\n'
b'$GPGSV,3,3,10,31,44,034,34,32,,,37*4F\r\n'
b'$GPGLL,2305.77561,N,11321.05095,E,114354.00,A,A*60\r\n'
b'$GPRMC,114355.00,A,2305.77498,N,11321.05115,E,2.694,165.50,241216,,,A*64\r\n'
b'$GPVTG,165.50,T,,M,2.694,N,4.989,K,A*3F\r\n'
b'$GPGGA,114355.00,2305.77498,N,11321.05115,E,1,05,2.19,0.9,M,-5.3,M,,*47\r\n'
b'$GPGSA,A,3,16,31,26,14,22,,,,,,,,4.07,2.19,3.44*0C\r\n'
b'$GPGSV,3,1,10,03,,,26,14,64,112,38,16,60,248,35,22,32,267,33*48\r\n'
b'$GPGSV,3,2,10,26,73,334,38,27,,,38,29,,,36,30,,,08*4D\r\n'
b'$GPGSV,3,3,10,31,44,034,35,32,,,39*40\r\n'
b'$GPGLL,2305.77498,N,11321.05115,E,114355.00,A,A*6F\r\n'
b'$GPRMC,114356.00,A,2305.77431,N,11321.05146,E,2.535,166.46,241216,,,A*6E\r\n'
b'$GPVTG,166.46,T,,M,2.535,N,4.694,K,A*30\r\n'
b'$GPGGA,114356.00,2305.77431,N,11321.05146,E,1,05,2.19,1.9,M,-5.3,M,,*40\r\n'
b'$GPGSA,A,3,16,31,26,14,22,,,,,,,,4.07,2.19,3.43*0B\r\n'
b'$GPGSV,3,1,09,03,,,35,14,64,112,35,16,60,248,40,22,32,267,40*49\r\n'
b'$GPGSV,3,2,09,26,73,334,38,27,,,34,29,,,37,31,44,034,41*73\r\n'
b'$GPGSV,3,3,09,32,,,39*7B\r\n'
b'$GPGLL,2305.77431,N,11321.05146,E,114356.00,A,A*69\r\n'
b'$GPRMC,114357.00,A,2305.77362,N,11321.05167,E,2.271,166.06,241216,,,A*6E\r\n'
b'$GPVTG,166.06,T,,M,2.271,N,4.206,K,A*3C\r\n'
b'$GPGGA,114357.00,2305.77362,N,11321.05167,E,1,05,2.19,2.2,M,-5.3,M,,*4B\r\n'
b'$GPGSA,A,3,16,31,26,14,22,,,,,,,,4.07,2.19,3.43*0B\r\n'
b'$GPGSV,3,1,09,03,,,37,14,64,112,36,16,60,248,38,22,32,267,38*48\r\n'
b'$GPGSV,3,2,09,26,73,334,38,27,,,34,29,,,34,31,44,034,40*71\r\n'
b'$GPGSV,3,3,09,32,,,37*75\r\n'
b'$GPGLL,2305.77362,N,11321.05167,E,114357.00,A,A*6A\r\n'
b'$GPRMC,114358.00,A,2305.77299,N,11321.05184,E,2.431,165.23,241216,,,A*6F\r\n'
b'$GPVTG,165.23,T,,M,2.431,N,4.503,K,A*38\r\n'
b'$GPGGA,114358.00,2305.77299,N,11321.05184,E,1,06,1.39,2.2,M,-5.3,M,,*4E\r\n'
b'$GPGSA,A,3,16,31,26,14,22,27,,,,,,,2.68,1.39,2.29*0D\r\n'
b'$GPGSV,3,1,09,03,,,35,14,64,112,36,16,60,248,39,22,32,267,31*42\r\n'
b'$GPGSV,3,2,09,26,73,334,36,27,21,181,34,29,,,35,31,44,034,40*45\r\n'
b'$GPGSV,3,3,09,32,,,40*75\r\n'
b'$GPGLL,2305.77299,N,11321.05184,E,114358.00,A,A*6D\r\n'
b'$GPRMC,114359.00,A,2305.77238,N,11321.05195,E,2.192,167.03,241216,,,A*69\r\n'
b'$GPVTG,167.03,T,,M,2.192,N,4.059,K,A*3E\r\n'
b'$GPGGA,114359.00,2305.77238,N,11321.05195,E,1,06,1.39,2.4,M,-5.3,M,,*42\r\n'
b'$GPGSA,A,3,16,31,26,14,22,27,,,,,,,2.68,1.39,2.29*0D\r\n'
b'$GPGSV,3,1,09,03,,,35,14,64,112,36,16,60,248,39,22,32,267,30*43\r\n'
b'$GPGSV,3,2,09,26,73,334,37,27,21,181,32,29,,,34,31,44,034,39*4D\r\n'
b'$GPGSV,3,3,09,32,,,38*7A\r\n'
b'$GPGLL,2305.77238,N,11321.05195,E,114359.00,A,A*67\r\n'
b'$GPRMC,114400.00,A,2305.77174,N,11321.05201,E,2.228,170.71,241216,,,A*66\r\n'
b'$GPVTG,170.71,T,,M,2.228,N,4.126,K,A*36\r\n'
b'$GPGGA,114400.00,2305.77174,N,11321.05201,E,1,06,1.39,2.2,M,-5.3,M,,*4A\r\n'
b'$GPGSA,A,3,16,31,26,14,22,27,,,,,,,2.68,1.39,2.29*0D\r\n'
b'$GPGSV,3,1,09,03,,,35,14,64,112,32,16,60,248,39,22,32,267,21*47\r\n'
b'$GPGSV,3,2,09,26,73,334,39,27,21,181,33,29,,,37,31,44,034,38*40\r\n'
b'$GPGSV,3,3,09,32,,,35*77\r\n'
b'$GPGLL,2305.77174,N,11321.05201,E,114400.00,A,A*69\r\n'
b'$GPRMC,114401.00,A,2305.77109,N,11321.05199,E,2.588,176.60,241216,,,A*64\r\n'
b'$GPVTG,176.60,T,,M,2.588,N,4.794,K,A*32\r\n'
b'$GPGGA,114401.00,2305.77109,N,11321.05199,E,1,06,1.39,2.3,M,-5.3,M,,*42\r\n'
b'$GPGSA,A,3,16,31,26,14,22,27,,,,,,,2.68,1.39,2.29*0D\r\n'
b'$GPGSV,3,1,09,03,,,34,14,64,112,35,16,60,248,34,22,32,267,19*47\r\n'
b'$GPGSV,3,2,09,26,73,334,31,27,21,181,32,29,,,33,31,44,034,33*46\r\n'
b'$GPGSV,3,3,09,32,,,32*70\r\n'
b'$GPGLL,2305.77109,N,11321.05199,E,114401.00,A,A*60\r\n'
b'$GPRMC,114402.00,A,2305.77063,N,11321.05191,E,2.514,178.11,241216,,,A*6F\r\n'
b'$GPVTG,178.11,T,,M,2.514,N,4.656,K,A*30\r\n'
b'$GPGGA,114402.00,2305.77063,N,11321.05191,E,1,05,1.96,2.4,M,-5.3,M,,*45\r\n'
b'$GPGSA,A,3,16,31,26,14,27,,,,,,,,3.44,1.96,2.83*07\r\n'
b'$GPGSV,4,1,16,02,,,26,03,,,39,04,,,26,07,,,25*74\r\n'
b'$GPGSV,4,2,16,14,64,112,42,16,60,248,45,20,,,26,22,32,267,*41\r\n'
b'$GPGSV,4,3,16,26,73,334,41,27,21,181,38,29,,,39,31,44,034,39*43\r\n'
b'$GPGSV,4,4,16,32,,,36,42,50,127,27,47,15,100,28,50,45,122,28*4B\r\n'
b'$GPGLL,2305.77063,N,11321.05191,E,114402.00,A,A*66\r\n'
b'$GPRMC,114403.00,A,2305.77001,N,11321.05199,E,2.212,178.69,241216,,,A*6C\r\n'
b'$GPVTG,178.69,T,,M,2.212,N,4.097,K,A*35\r\n'
b'$GPGGA,114403.00,2305.77001,N,11321.05199,E,1,06,1.96,2.2,M,-5.3,M,,*4D\r\n'
b'$GPGSA,A,3,16,31,26,14,22,27,,,,,,,3.44,1.96,2.83*07\r\n'
b'$GPGSV,4,1,13,02,,,21,03,,,37,04,,,22,07,,,22*7B\r\n'
b'$GPGSV,4,2,13,14,64,112,39,16,60,248,42,20,,,23,22,32,267,20*48\r\n'
b'$GPGSV,4,3,13,26,73,334,41,27,21,181,36,29,,,38,31,44,034,36*46\r\n'
b'$GPGSV,4,4,13,32,,,37*7E\r\n'
b'$GPGLL,2305.77001,N,11321.05199,E,114403.00,A,A*6B\r\n'
b'$GPRMC,114404.00,A,2305.76929,N,11321.05198,E,2.766,181.71,241216,,,A*61\r\n'
b'$GPVTG,181.71,T,,M,2.766,N,5.122,K,A*32\r\n'
b'$GPGGA,114404.00,2305.76929,N,11321.05198,E,1,07,1.81,4.4,M,-5.3,M,,*4E\r\n'
b'$GPGSA,A,3,16,29,31,26,14,22,27,,,,,,2.71,1.81,2.02*04\r\n'
b'$GPGSV,3,1,12,03,,,36,04,,,19,07,,,19,14,64,112,41*4D\r\n'
b'$GPGSV,3,2,12,16,60,248,41,20,,,21,22,32,267,19,26,73,334,41*4B\r\n'
b'$GPGSV,3,3,12,27,21,181,41,29,17,050,38,31,44,034,38,32,,,35*4B\r\n'
b'$GPGLL,2305.76929,N,11321.05198,E,114404.00,A,A*6F\r\n'
b'$GPRMC,114405.00,A,2305.76879,N,11321.05198,E,2.508,175.79,241216,,,A*6D\r\n'
b'$GPVTG,175.79,T,,M,2.508,N,4.645,K,A*3C\r\n'
b'$GPGGA,114405.00,2305.76879,N,11321.05198,E,1,06,1.81,4.4,M,-5.3,M,,*4A\r\n'
b'$GPGSA,A,3,16,29,31,26,14,27,,,,,,,2.71,1.81,2.02*04\r\n'
b'$GPGSV,3,1,11,03,,,32,04,,,13,14,64,112,42,16,60,248,39*79\r\n'
b'$GPGSV,3,2,11,20,,,18,22,32,267,18,26,73,334,40,27,21,181,41*43\r\n'
b'$GPGSV,3,3,11,29,17,050,34,31,44,034,38,32,,,37*7D\r\n'
b'$GPGLL,2305.76879,N,11321.05198,E,114405.00,A,A*6A\r\n'
b'$GPRMC,114406.00,A,2305.76824,N,11321.05210,E,2.379,169.68,241216,,,A*68\r\n'
b'$GPVTG,169.68,T,,M,2.379,N,4.406,K,A*34\r\n'
b'$GPGGA,114406.00,2305.76824,N,11321.05210,E,1,07,1.19,4.8,M,-5.3,M,,*4E\r\n'
b'$GPGSA,A,3,16,29,31,26,14,22,27,,,,,,1.99,1.19,1.59*0D\r\n'
b'$GPGSV,3,1,11,03,,,32,04,,,09,14,64,112,39,16,60,248,39*7E\r\n'
b'$GPGSV,3,2,11,20,,,14,22,32,267,17,26,73,334,41,27,21,181,42*42\r\n'
b'$GPGSV,3,3,11,29,17,050,39,31,44,034,38,32,,,37*70\r\n'
b'$GPGLL,2305.76824,N,11321.05210,E,114406.00,A,A*62\r\n'
b'$GPRMC,114407.00,A,2305.76769,N,11321.05224,E,1.953,169.42,241216,,,A*61\r\n'
b'$GPVTG,169.42,T,,M,1.953,N,3.617,K,A*38\r\n'
b'$GPGGA,114407.00,2305.76769,N,11321.05224,E,1,07,1.19,4.8,M,-5.3,M,,*4E\r\n'
b'$GPGSA,A,3,16,29,31,26,14,22,27,,,,,,1.99,1.19,1.59*0D\r\n'
b'$GPGSV,3,1,11,03,,,26,04,,,11,14,64,112,29,16,60,248,33*79\r\n'
b'$GPGSV,3,2,11,20,,,11,22,32,267,16,26,73,334,33,27,21,181,34*42\r\n'
b'$GPGSV,3,3,11,29,17,050,31,31,44,034,31,32,,,32*74\r\n'
b'$GPGLL,2305.76769,N,11321.05224,E,114407.00,A,A*62\r\n'
b'$GPRMC,114408.00,A,2305.76720,N,11321.05222,E,1.902,174.36,241216,,,A*6E\r\n'
b'$GPVTG,174.36,T,,M,1.902,N,3.522,K,A*36\r\n'
b'$GPGGA,114408.00,2305.76720,N,11321.05222,E,1,07,1.19,4.5,M,-5.3,M,,*47\r\n'
b'$GPGSA,A,3,16,29,31,26,14,22,27,,,,,,1.99,1.19,1.59*0D\r\n'
b'$GPGSV,3,1,11,03,,,26,04,,,13,14,64,112,30,16,60,248,38*78\r\n'
b'$GPGSV,3,2,11,20,,,14,22,32,267,16,26,73,334,36,27,21,181,32*44\r\n'
b'$GPGSV,3,3,11,29,17,050,28,31,44,034,37,32,,,33*7B\r\n'
b'$GPGLL,2305.76720,N,11321.05222,E,114408.00,A,A*66\r\n'
b'$GPRMC,114409.00,A,2305.76667,N,11321.05224,E,1.947,177.97,241216,,,A*62\r\n'
b'$GPVTG,177.97,T,,M,1.947,N,3.605,K,A*39\r\n'
b'$GPGGA,114409.00,2305.76667,N,11321.05224,E,1,07,1.19,4.4,M,-5.3,M,,*43\r\n'
b'$GPGSA,A,3,16,29,31,26,14,22,27,,,,,,1.99,1.19,1.59*0D\r\n'
b'$GPGSV,3,1,11,03,,,25,04,,,14,14,64,112,32,16,60,248,35*73\r\n'
b'$GPGSV,3,2,11,20,,,14,22,32,267,17,26,73,334,37,27,21,181,34*42\r\n'
b'$GPGSV,3,3,11,29,17,050,35,31,44,034,37,32,,,31*75\r\n'
b'$GPGLL,2305.76667,N,11321.05224,E,114409.00,A,A*63\r\n'
b'$GPRMC,114410.00,A,2305.76610,N,11321.05224,E,2.174,179.91,241216,,,A*69\r\n'
b'$GPVTG,179.91,T,,M,2.174,N,4.025,K,A*39\r\n'
b'$GPGGA,114410.00,2305.76610,N,11321.05224,E,1,07,1.19,4.3,M,-5.3,M,,*4C\r\n'
b'$GPGSA,A,3,16,29,31,26,14,22,27,,,,,,1.99,1.19,1.59*0D\r\n'
b'$GPGSV,3,1,10,03,,,23,14,64,112,33,16,60,248,36,20,,,14*70\r\n'
b'$GPGSV,3,2,10,22,32,267,14,26,73,334,37,27,21,181,36,29,17,050,34*7A\r\n'
b'$GPGSV,3,3,10,31,44,034,37,32,,,31*4A\r\n'
b'$GPGLL,2305.76610,N,11321.05224,E,114410.00,A,A*6B\r\n'
b'$GPRMC,114411.00,A,2305.76550,N,11321.05220,E,2.255,181.81,241216,,,A*6D\r\n'
b'$GPVTG,181.81,T,,M,2.255,N,4.176,K,A*38\r\n'
b'$GPGGA,114411.00,2305.76550,N,11321.05220,E,1,07,1.19,4.1,M,-5.3,M,,*4C\r\n'
b'$GPGSA,A,3,16,29,31,26,14,22,27,,,,,,1.99,1.19,1.59*0D\r\n'
b'$GPGSV,3,1,10,03,,,20,14,64,112,34,16,60,248,39,20,,,15*7A\r\n'
b'$GPGSV,3,2,10,22,32,267,14,26,73,334,38,27,21,181,34,29,17,050,33*70\r\n'
b'$GPGSV,3,3,10,31,44,034,35,32,,,31*48\r\n'
b'$GPGLL,2305.76550,N,11321.05220,E,114411.00,A,A*69\r\n'
b'$GPRMC,114412.00,A,2305.76485,N,11321.05218,E,2.306,182.29,241216,,,A*6A\r\n'
b'$GPVTG,182.29,T,,M,2.306,N,4.270,K,A*3B\r\n'
b'$GPGGA,114412.00,2305.76485,N,11321.05218,E,1,07,1.19,4.1,M,-5.3,M,,*4D\r\n'
b'$GPGSA,A,3,16,29,31,26,14,22,27,,,,,,1.99,1.19,1.59*0D\r\n'
b'$GPGSV,3,1,10,03,,,19,14,64,112,34,16,60,248,39,20,,,15*70\r\n'
b'$GPGSV,3,2,10,22,32,267,14,26,73,334,38,27,21,181,33,29,17,050,33*77\r\n'
b'$GPGSV,3,3,10,31,44,034,34,32,,,32*4A\r\n'
b'$GPGLL,2305.76485,N,11321.05218,E,114412.00,A,A*68\r\n'
b'$GPRMC,114413.00,A,2305.76416,N,11321.05228,E,2.441,175.13,241216,,,A*67\r\n'
b'$GPVTG,175.13,T,,M,2.441,N,4.521,K,A*3D\r\n'
b'$GPGGA,114413.00,2305.76416,N,11321.05228,E,1,07,1.19,4.2,M,-5.3,M,,*46\r\n'
b'$GPGSA,A,3,16,29,31,26,14,22,27,,,,,,1.99,1.19,1.59*0D\r\n'
b'$GPGSV,3,1,10,03,,,17,14,64,112,36,16,60,248,42,20,,,15*70\r\n'
b'$GPGSV,3,2,10,22,32,267,14,26,73,334,38,27,21,181,34,29,17,050,34*77\r\n'
b'$GPGSV,3,3,10,31,44,034,37,32,,,39*42\r\n'
b'$GPGLL,2305.76416,N,11321.05228,E,114413.00,A,A*60\r\n'
b'$GPRMC,114414.00,A,2305.76349,N,11321.05244,E,2.366,172.65,241216,,,A*63\r\n'
b'$GPVTG,172.65,T,,M,2.366,N,4.382,K,A*36\r\n'
b'$GPGGA,114414.00,2305.76349,N,11321.05244,E,1,07,1.19,4.3,M,-5.3,M,,*47\r\n'
b'$GPGSA,A,3,16,29,31,26,14,22,27,,,,,,1.99,1.19,1.59*0D\r\n'
b'$GPGSV,2,1,08,14,64,113,34,16,60,248,40,22,32,267,12,26,73,334,39*75\r\n'
b'$GPGSV,2,2,08,27,21,181,30,29,17,050,34,31,44,034,39,32,,,39*47\r\n'
b'$GPGLL,2305.76349,N,11321.05244,E,114414.00,A,A*60\r\n'
b'$GPRMC,114415.00,A,2305.76288,N,11321.05263,E,2.242,167.27,241216,,,A*6E\r\n'
b'$GPVTG,167.27,T,,M,2.242,N,4.151,K,A*3F\r\n'
b'$GPGGA,114415.00,2305.76288,N,11321.05263,E,1,07,1.19,4.3,M,-5.3,M,,*4F\r\n'
b'$GPGSA,A,3,16,29,31,26,14,22,27,,,,,,1.99,1.19,1.59*0D\r\n'
b'$GPGSV,2,1,08,14,64,113,37,16,60,248,39,22,32,267,15,26,73,334,37*71\r\n'
b'$GPGSV,2,2,08,27,21,181,34,29,17,050,31,31,44,034,39,32,,,35*4A\r\n'
b'$GPGLL,2305.76288,N,11321.05263,E,114415.00,A,A*68\r\n'
b'$GPRMC,114416.00,A,2305.76224,N,11321.05287,E,2.193,165.53,241216,,,A*6F\r\n'
b'$GPVTG,165.53,T,,M,2.193,N,4.061,K,A*33\r\n'
b'$GPGGA,114416.00,2305.76224,N,11321.05287,E,1,07,1.19,4.3,M,-5.3,M,,*40\r\n'
